EEMMM,FECHA_DEF_CT,INTUBADO_CT,NEUMONIA_CT,EMBARAZO_CT,HABLA_LENGUA_INDIG_CT,DIABETES_CT,EPOC_CT,ASMA_CT,INMUSUPR_CT,HIPERTENSION_CT,OTRA_COM_CT,CARDIOVASCULAR_CT,OBESIDAD_CT,RENAL_CRONICA_CT,TABAQUISMO_CT,OTRO_CASO_CT,RESULTADO_POS,RESULTADO_NEG,RESULTADO_PDT,MUJERES_CT,HOMBRES_CT,LONGITUD,LATITUD,NOM_ENT,NOM_MUN
01001,2,4,41,7,1,51,6,45,14,100,82,18,108,14,95,265,69,673,45,36,33,-102.2958029023545,21.81143623260154,Aguascalientes,Aguascalientes
01002,0,0,0,0,0,3,1,1,0,2,0,0,1,0,1,5,1,7,2,0,1,-102.0456380733432,22.12650816018908,Aguascalientes,Asientos
01003,0,0,3,0,3,3,2,0,0,6,1,2,5,1,6,8,0,28,0,0,0,-102.7049039395209,21.90069448763411,Aguascalientes,Calvillo
01004,0,0,1,0,0,0,0,2,0,0,0,0,1,0,0,1,0,7,0,0,0,-102.2970416607016,22.36062673896736,Aguascalientes,Cosío
01005,0,1,3,2,0,5,3,6,3,10,7,1,6,2,4,15,2,52,6,0,2,-102.4456492622486,21.93211750620302,Aguascalientes,Jesús María
01006,0,0,1,0,0,1,0,2,0,3,2,1,3,0,4,13,5,23,0,2,3,-102.3016772243551,22.10454236437223,Aguascalientes,Pabellón de Arteaga
01007,0,1,4,0,2,3,1,0,0,7,0,0,5,0,4,14,2,26,3,1,1,-102.3407287274216,22.26740774862223,Aguascalientes,Rincón de Romos
01008,0,0,0,0,0,0,0,0,0,0,0,0,0,0,0,2,0,4,0,0,0,-102.5258387192294,22.14663460700684,Aguascalientes,San José de Gracia
01009,0,0,2,0,0,1,0,0,0,3,0,0,2,2,1,0,1,8,0,1,0,-102.1921306073213,22.23697375178681,Aguascalientes,Tepezalá
01010,0,0,1,0,0,0,0,0,0,1,0,0,0,0,0,0,1,4,1,0,1,-102.0353985228648,21.92151943268495,Aguascalientes,El Llano
01011,0,0,0,0,0,2,0,3,1,2,3,0,5,0,1,4,0,17,0,0,0,-102.2290213836018,22.0330705109468,Aguascalientes,San Francisco de los Romo
02000,0,0,0,0,0,0,0,0,0,1,0,0,3,0,1,0,3,2,0,1,2,,,,
02001,2,3,23,5,7,23,3,20,2,37,19,7,31,1,27,29,12,142,25,6,6,-114.9572143012188,30.03650954920085,Baja California,Ensenada
02002,22,13,170,11,3,128,15,67,18,225,42,36,171,18,78,249,241,310,271,113,128,-115.166228994233,31.7417443097908,Baja California,Mexicali
02003,2,3,19,1,2,13,7,5,7,23,0,4,12,3,5,7,13,28,28,6,7,-116.2905640746028,32.43546819036516,Baja California,Tecate
02004,45,36,307,16,9,164,24,53,26,252,57,26,209,20,101,203,401,390,390,180,221,-116.8474320421639,32.41283998836974,Baja California,Tijuana
02005,3,7,10,1,0,11,3,5,1,12,1,4,7,3,5,1,9,26,12,7,2,-116.890739793588,32.25294193525151,Baja California,Playas de Rosarito
03000,0,0,0,0,0,0,1,0,0,0,0,0,1,0,0,0,1,0,0,1,0,,,,
03001,0,2,5,1,1,5,0,1,3,8,3,1,7,0,1,13,2,23,9,1,1,-111.8200792262382,25.49134768626627,Baja California Sur,Comondú
03002,0,0,6,0,0,8,0,4,1,5,2,0,1,0,5,10,1,25,4,0,1,-113.2306342672385,27.28609898710681,Baja California Sur,Mulegé
03003,4,3,70,10,2,60,7,33,4,104,11,27,62,10,33,73,67,270,77,34,33,-110.6633119881953,24.19047423539823,Baja California Sur,La Paz
03008,3,1,35,8,1,32,4,16,9,53,18,10,44,0,29,75,122,251,145,51,71,-109.7532777580722,23.27661251551691,Baja California Sur,Los Cabos
03009,0,0,0,0,0,4,0,1,0,2,1,0,1,0,1,10,0,12,0,0,0,-111.4484795178176,25.95317456825174,Baja California Sur,Loreto
04001,0,0,2,0,3,1,0,0,0,2,0,1,3,0,0,0,2,3,0,1,1,-90.21803143885874,20.38438926348043,Campeche,Calkiní
04002,0,0,9,0,1,3,0,5,2,8,3,1,15,0,10,16,10,49,5,2,8,-90.26764807580209,19.6170176475377,Campeche,Campeche
04003,2,0,25,0,1,14,3,4,2,10,3,2,14,0,10,55,22,70,13,4,18,-91.48322870526154,18.52404215614652,Campeche,Carmen
04004,0,0,1,0,0,0,0,1,0,1,0,0,0,0,1,2,0,3,0,0,0,-90.49931970130277,19.13421880764037,Campeche,Champotón
04005,0,0,0,0,0,0,0,0,0,0,0,0,0,0,0,0,0,1,0,0,0,-90.13541797494753,20.12444165589006,Campeche,Hecelchakán
04006,0,0,0,0,0,0,0,0,0,0,0,0,0,0,0,0,0,1,0,0,0,-89.6096439688366,19.4740717379277,Campeche,Hopelchén
04007,0,0,0,0,0,1,0,0,0,0,0,0,0,0,0,0,0,1,0,0,0,-91.97387269922999,18.27359983784817,Campeche,Palizada
04009,0,0,2,0,1,1,1,1,0,0,0,0,2,0,0,2,0,8,1,0,0,-90.47435010149847,18.55059825658151,Campeche,Escárcega
04010,0,0,2,0,0,1,0,0,0,2,0,0,1,1,0,0,0,1,1,0,0,-89.66157351364092,18.40282911828491,Campeche,Calakmul
04011,1,0,2,0,0,2,2,2,0,3,1,2,3,1,0,3,4,3,1,3,1,-90.71656440025738,18.09903850631431,Campeche,Candelaria
05000,0,0,0,0,0,0,0,0,0,0,0,0,1,0,0,0,0,0,1,0,0,,,,
05001,0,0,0,0,0,0,0,0,0,0,0,0,0,0,1,0,0,0,2,0,0,-101.2457823748929,27.12239468626545,Coahuila de Zaragoza,Abasolo
05002,0,3,18,1,0,17,1,6,3,21,6,8,21,0,8,15,3,75,21,1,2,-102.0100266488087,29.43260232095648,Coahuila de Zaragoza,Acuña
05003,0,0,2,0,0,5,0,1,0,6,0,2,8,1,4,11,1,18,4,0,1,-100.9160028322692,28.27834827749603,Coahuila de Zaragoza,Allende
05004,0,0,3,1,0,2,1,2,0,1,0,0,2,0,0,5,1,5,9,0,1,-100.6423697158426,25.34135772528837,Coahuila de Zaragoza,Arteaga
05005,0,0,1,0,0,1,0,0,1,1,1,0,1,1,0,0,0,1,0,0,0,-100.7992504012378,26.85245277192329,Coahuila de Zaragoza,Candela
05006,1,1,2,1,0,4,0,1,1,3,1,0,6,0,0,4,5,9,14,3,2,-101.3869251521709,26.58623861982857,Coahuila de Zaragoza,Castaños
05007,0,0,0,0,0,3,1,2,0,5,0,0,3,1,1,20,2,10,18,2,0,-102.2989826716286,26.69910386678177,Coahuila de Zaragoza,Cuatro Ciénegas
05008,0,0,0,0,0,2,0,0,0,2,1,0,2,1,3,1,0,1,3,0,0,-101.2795894768276,27.30606523657074,Coahuila de Zaragoza,Escobedo
05009,0,0,4,0,0,7,1,3,2,6,6,3,4,1,5,2,1,6,12,0,1,-103.1808574068478,26.3201457615587,Coahuila de Zaragoza,Francisco I. Madero
05010,1,0,7,0,1,12,3,3,0,15,3,1,15,1,6,34,14,61,34,6,8,-101.5282728824755,26.94769788443644,Coahuila de Zaragoza,Frontera
05014,1,0,1,0,0,1,0,0,0,1,0,0,0,0,0,0,1,2,0,1,0,-100.9512640637283,29.002702286551,Coahuila de Zaragoza,Jiménez
05016,0,0,0,0,0,1,0,1,0,0,0,0,1,0,0,3,0,2,2,0,0,-101.9137193480476,27.15054723328991,Coahuila de Zaragoza,Lamadrid
05017,1,1,7,1,0,14,3,2,1,13,3,4,15,1,6,67,10,53,23,6,4,-103.2150636994244,25.55982485310042,Coahuila de Zaragoza,Matamoros
05018,11,3,35,6,1,64,7,25,14,80,20,8,101,10,51,192,126,302,208,55,71,-101.1943939514232,26.89685678599468,Coahuila de Zaragoza,Monclova
05019,0,0,0,0,0,0,0,0,0,1,0,0,2,0,1,1,1,3,1,0,1,-101.0833511512629,28.32774739026187,Coahuila de Zaragoza,Morelos
05020,1,0,1,0,0,2,0,3,1,3,0,0,5,0,4,11,1,24,3,1,0,-101.9004662987813,28.40301796224499,Coahuila de Zaragoza,Múzquiz
05021,0,0,0,0,0,0,0,0,0,2,0,0,2,0,1,5,1,1,6,0,1,-101.7654255810673,27.22773135751677,Coahuila de Zaragoza,Nadadores
05022,0,0,0,1,0,1,0,1,0,0,0,0,1,0,0,1,0,5,3,0,0,-100.6204886542605,28.49643866491771,Coahuila de Zaragoza,Nava
05023,0,0,0,0,0,0,0,0,0,0,0,0,0,0,0,0,0,0,1,0,0,-102.8928889145403,27.96561870073677,Coahuila de Zaragoza,Ocampo
05024,0,0,2,0,0,0,0,2,0,0,0,0,1,0,1,3,0,2,2,0,0,-102.1146680300139,25.50387171895608,Coahuila de Zaragoza,Parras
05025,0,0,4,0,2,11,0,11,2,28,5,9,18,1,12,61,14,151,52,6,8,-100.6144697145534,28.77982029618424,Coahuila de Zaragoza,Piedras Negras
05027,0,0,4,0,0,6,2,3,1,6,1,0,6,0,3,9,4,15,22,1,3,-101.2820652688746,25.91374759588775,Coahuila de Zaragoza,Ramos Arizpe
05028,0,0,2,0,0,4,1,2,0,3,0,1,4,0,3,6,1,20,3,1,0,-101.1430006498049,27.92287165782547,Coahuila de Zaragoza,Sabinas
05029,1,0,2,0,0,1,0,0,0,4,0,0,3,1,2,7,2,9,1,1,1,-101.7564940839737,26.93983256817522,Coahuila de Zaragoza,Sacramento
05030,1,3,49,3,1,64,9,23,16,96,29,16,83,11,73,134,26,262,230,11,15,-101.1251086979325,25.02914758960357,Coahuila de Zaragoza,Saltillo
05031,0,0,1,0,0,3,0,1,1,4,0,3,7,0,4,6,2,10,5,0,2,-101.9688791725747,27.84012934678949,Coahuila de Zaragoza,San Buenaventura
05032,0,1,2,0,0,5,0,2,3,5,0,1,10,0,3,13,3,20,10,1,2,-101.389758858874,28.06395621224468,Coahuila de Zaragoza,San Juan de Sabinas
05033,0,1,18,0,0,13,3,3,2,11,2,3,6,4,4,15,1,31,17,0,1,-102.7179972192563,26.08404224445379,Coahuila de Zaragoza,San Pedro
05035,1,1,33,2,0,47,5,24,10,63,22,9,50,9,43,112,23,261,137,10,13,-103.2489193366397,25.17007521737535,Coahuila de Zaragoza,Torreón
05036,0,0,0,0,0,1,0,0,0,0,0,0,0,0,0,1,0,2,1,0,0,-102.9249683071769,25.22186896166087,Coahuila de Zaragoza,Viesca
05037,0,0,0,0,0,1,0,0,0,1,0,0,1,1,1,1,0,4,0,0,0,-100.7803082245769,28.09739269689598,Coahuila de Zaragoza,Villa Unión
05038,0,0,0,1,0,0,0,0,0,0,0,0,3,0,0,1,0,4,0,0,0,-101.3950114478556,28.8119741754033,Coahuila de Zaragoza,Zaragoza
06001,0,1,4,0,0,3,1,0,0,4,1,0,4,1,1,1,0,5,2,0,0,-103.9984204336902,19.0092461966213,Colima,Armería
06002,0,2,10,3,0,4,3,2,1,6,3,3,5,2,3,7,2,29,5,0,2,-103.6326677597427,19.1160960935143,Colima,Colima
06003,0,0,2,0,0,2,0,0,1,1,0,0,2,0,1,0,0,5,0,0,0,-103.7699941435278,19.39344344944792,Colima,Comala
06005,0,0,1,0,0,0,1,0,0,0,2,1,0,0,1,1,1,2,3,1,0,-103.5954986362513,19.32684376263885,Colima,Cuauhtémoc
06007,2,0,7,1,0,7,0,3,1,6,2,0,3,2,3,2,7,21,1,4,3,-104.2997986456348,19.1494970064166,Colima,Manzanillo
06009,0,0,13,0,0,7,3,2,1,9,1,3,5,1,3,1,0,24,6,0,0,-103.811,18.86423254439233,Colima,Tecomán
06010,0,0,8,0,1,4,0,1,0,4,0,2,4,1,1,4,2,19,3,1,1,-103.8444266468641,19.3096016592122,Colima,Villa de Álvarez
07001,0,1,0,0,0,1,0,1,0,0,0,0,0,0,0,0,0,1,0,0,0,-92.68168539218001,15.4141397937957,Chiapas,Acacoyagua
07002,0,0,0,0,0,0,0,0,0,0,0,0,0,0,0,0,0,0,1,0,0,-92.8146568926304,16.55160457814992,Chiapas,Acala
07005,0,0,1,0,1,0,0,2,0,0,0,0,0,0,0,0,0,1,1,0,0,-92.85733830140137,17.38559389323158,Chiapas,Amatán
07008,0,0,0,0,0,0,0,0,0,0,0,0,0,0,0,1,0,1,0,0,0,-92.68044800203944,15.75814793992212,Chiapas,Angel Albino Corzo
07009,0,0,1,0,0,1,0,0,0,1,0,0,2,0,0,1,1,3,0,0,1,-93.93736052803217,16.2488838993063,Chiapas,Arriaga
07012,0,0,0,0,0,2,0,0,0,2,1,1,0,1,0,0,0,3,0,0,0,-93.31907480292966,16.86660665447009,Chiapas,Berriozábal
07014,0,0,0,0,1,0,0,0,0,0,0,0,0,0,0,0,0,1,0,0,0,-92.74129239307312,17.0317482289192,Chiapas,El Bosque
07015,0,0,0,0,0,0,0,0,0,2,0,0,1,0,0,2,0,2,2,0,0,-92.16413446265108,15.08624107060646,Chiapas,Cacahoatán
07016,0,0,0,0,0,0,0,0,0,1,0,0,2,0,0,1,0,3,0,0,0,-91.99760375253628,17.779871279332,Chiapas,Catazajá
07017,0,1,1,1,1,1,1,1,0,1,0,0,1,0,1,1,0,8,1,0,0,-93.86747176388707,16.71296265106666,Chiapas,Cintalapa
07018,0,0,0,0,0,0,0,0,0,0,0,0,0,0,1,1,0,0,1,0,0,-93.12607842352891,17.12057489637378,Chiapas,Coapilla
07019,0,0,2,0,0,2,0,1,2,3,1,1,1,0,1,7,3,5,3,0,3,-92.17897403830646,16.29688357168418,Chiapas,Comitán de Domínguez
07020,0,1,1,0,0,0,0,0,0,0,0,0,0,0,0,0,0,2,0,0,0,-92.77124298284902,15.96089492541208,Chiapas,La Concordia
07021,0,0,0,0,0,0,0,0,0,0,0,0,0,0,0,0,0,1,0,0,0,-93.25286045319912,17.09417441020597,Chiapas,Copainalá
07023,0,0,1,0,1,0,0,0,0,0,0,0,0,0,0,0,0,1,0,0,0,-92.68016908643534,16.81936582698487,Chiapas,Chamula
07027,0,0,2,0,0,2,0,2,0,2,1,0,1,0,1,5,3,13,1,0,3,-92.97604928487961,16.60663509838311,Chiapas,Chiapa de Corzo
07028,0,0,0,0,0,0,0,0,0,0,1,0,0,0,0,0,0,0,1,0,0,-92.725944072425,16.55397282394359,Chiapas,Chiapilla
07029,0,0,0,0,0,0,0,0,0,0,0,0,0,0,0,1,1,0,0,0,1,-93.11151996839588,16.99533304895845,Chiapas,Chicoasén
07030,0,0,0,0,0,0,0,0,0,0,0,0,0,0,0,0,1,0,0,0,1,-92.3912898609385,15.79903225713749,Chiapas,Chicomuselo
07031,0,0,0,0,0,0,0,0,0,0,0,0,0,0,0,0,0,1,0,0,0,-92.03514187537688,17.10969121766681,Chiapas,Chilón
07034,0,0,0,0,0,0,0,0,0,0,0,0,0,0,0,2,1,1,0,1,0,-92.08776683795807,15.76265142317839,Chiapas,Frontera Comalapa
07035,0,0,0,0,0,0,0,0,0,0,0,0,0,1,1,0,0,1,0,0,0,-92.21319901985241,14.75000927593104,Chiapas,Frontera Hidalgo
07037,0,0,0,0,0,0,0,0,0,0,0,0,0,0,0,0,0,1,0,0,0,-92.42377325832057,15.00940399984675,Chiapas,Huehuetán
07040,0,0,0,0,0,0,0,0,0,0,0,0,0,0,0,0,1,1,1,1,0,-92.54685429804861,15.09698587139698,Chiapas,Huixtla
07041,1,0,1,0,0,0,0,0,0,0,0,0,0,0,0,2,2,1,0,0,2,-91.79579481072966,16.20470225640985,Chiapas,La Independencia
07042,0,0,0,0,0,0,0,1,0,0,0,0,1,0,0,0,0,1,0,0,0,-92.97862919121238,17.29853247297972,Chiapas,Ixhuatán
07048,0,0,1,0,0,0,0,0,0,0,0,0,0,0,0,0,0,1,0,0,0,-93.19333535763948,17.699447208553,Chiapas,Juárez
07052,0,0,0,0,0,0,0,0,0,0,0,0,0,0,0,1,0,1,0,0,0,-91.74028292347236,16.38560263017267,Chiapas,Las Margaritas
07054,0,0,0,0,0,0,0,0,0,0,0,0,0,0,0,0,0,1,0,0,0,-92.49755248655788,14.88060477642033,Chiapas,Mazatán
07055,0,0,0,0,0,0,0,0,0,0,0,0,0,0,0,0,0,1,0,0,0,-92.20159972792956,14.82166366201898,Chiapas,Metapa
07057,0,0,1,0,0,0,0,0,0,0,0,0,0,0,0,0,1,0,0,1,0,-92.33146420122222,15.31382590476277,Chiapas,Motozintla
07059,0,0,3,0,2,0,1,0,0,1,1,1,0,0,0,0,2,4,1,1,1,-91.33749873497575,16.70209387743617,Chiapas,Ocosingo
07061,0,1,1,0,0,1,1,0,0,0,0,1,0,0,0,0,0,3,2,0,0,-93.49094584440078,16.82629462430288,Chiapas,Ocozocoautla de Espinosa
07065,0,0,1,0,3,2,0,1,0,2,0,1,3,0,2,18,3,30,1,2,1,-91.81265556494199,17.44407559646844,Chiapas,Palenque
07068,0,0,1,0,0,1,0,0,0,1,0,1,0,0,0,1,0,4,0,0,0,-93.19914078390393,17.53057652754353,Chiapas,Pichucalco
07069,0,0,1,0,0,2,2,1,1,2,0,1,1,2,0,0,0,3,1,0,0,-93.19240132153077,15.66955613847571,Chiapas,Pijijiapan
07074,0,0,3,0,1,1,0,1,0,0,0,0,3,0,0,0,2,2,2,1,1,-93.2293805785588,17.86422331292064,Chiapas,Reforma
07077,0,0,1,0,1,2,0,0,0,1,0,0,2,0,0,1,1,2,0,1,0,-92.18714148836224,17.43761900354399,Chiapas,Salto de Agua
07078,0,1,7,0,0,3,2,2,1,4,1,1,1,1,6,11,8,17,2,5,3,-92.58994606402862,16.6782971136475,Chiapas,San Cristóbal de las Casas
07079,0,0,0,1,0,0,0,0,0,0,0,0,0,0,0,0,0,1,0,0,0,-93.20967827274983,16.91313318991784,Chiapas,San Fernando
07086,0,0,0,0,0,1,0,0,0,2,1,0,0,1,1,1,1,4,0,0,1,-93.1363322481072,16.58554556840696,Chiapas,Suchiapa
07087,0,0,1,0,0,0,0,0,0,0,0,0,0,1,0,0,0,1,0,0,0,-92.22712116868611,14.63938353403977,Chiapas,Suchiate
07089,1,0,3,2,0,3,5,3,1,4,4,1,5,2,8,6,5,23,9,0,5,-92.30479678697591,14.93396803956858,Chiapas,Tapachula
07092,0,0,0,0,0,0,0,0,0,0,0,0,0,0,0,0,0,1,0,0,0,-93.3954625718971,17.17295415429768,Chiapas,Tecpatán
07093,0,0,1,0,1,0,0,0,0,0,0,0,0,0,0,0,0,1,0,0,0,-92.47200580062298,16.83318847449842,Chiapas,Tenejapa
07094,0,0,3,0,0,1,0,0,0,0,0,0,0,0,0,0,1,2,0,0,1,-92.50881225252947,16.56110293359935,Chiapas,Teopisca
07097,1,0,1,0,0,0,0,0,0,0,1,1,3,0,0,2,2,5,1,0,2,-93.69052811239222,15.99699062844869,Chiapas,Tonalá
07099,0,0,1,0,0,0,0,0,0,0,0,0,0,0,0,0,0,2,0,0,0,-91.89940023657759,16.02444313162982,Chiapas,La Trinitaria
07100,0,0,0,0,2,1,0,0,0,1,0,0,0,0,0,2,3,0,1,0,3,-92.26962531738245,17.30078978302515,Chiapas,Tumbalá
07101,0,4,9,2,0,14,2,6,7,31,23,3,24,2,15,50,27,132,9,9,18,-93.13728498580203,16.73944662932255,Chiapas,Tuxtla Gutiérrez
07102,0,0,1,0,0,0,0,0,0,0,0,0,0,0,0,1,0,3,0,0,0,-92.1986782415399,14.89410615281812,Chiapas,Tuxtla Chico
07103,0,0,0,0,0,0,0,0,0,0,0,0,1,0,0,0,0,0,1,0,0,-92.41156438605579,15.14044135619081,Chiapas,Tuzantán
07104,0,1,1,0,0,1,0,0,0,0,0,0,0,0,0,1,0,1,0,0,0,-92.24643996052664,16.12408314399477,Chiapas,Tzimol
07106,0,0,1,0,1,0,0,0,0,0,0,0,0,0,0,0,0,1,0,0,0,-92.6078968601124,16.31731243142566,Chiapas,Venustiano Carranza
07108,0,0,0,0,0,1,0,0,0,1,0,0,1,0,0,2,1,3,2,0,1,-93.3755068085867,16.34619519860487,Chiapas,Villaflores
07109,0,0,0,0,1,0,0,1,0,1,1,0,1,0,3,5,0,5,0,0,0,-92.32584884465851,17.18555924687619,Chiapas,Yajalón
07111,0,0,0,0,0,0,0,0,0,0,1,0,0,0,0,0,0,1,0,0,0,-92.78198097565655,16.72191588897702,Chiapas,Zinacantán
07113,0,0,0,0,1,0,0,0,0,0,1,0,0,0,0,0,0,1,0,0,0,-92.69017605751128,16.92183092499687,Chiapas,Aldama
08001,0,0,2,0,0,2,0,0,0,3,0,0,0,0,2,0,2,0,1,1,1,-106.3806920520265,30.44923689901282,Chihuahua,Ahumada
08002,0,0,1,0,0,0,0,0,0,0,0,0,0,0,0,0,0,1,0,0,0,-105.5885689624324,29.07328623032554,Chihuahua,Aldama
08004,0,0,0,0,0,0,0,0,0,0,0,0,0,0,0,0,0,1,0,0,0,-105.8235382261807,28.58222417632972,Chihuahua,Aquiles Serdán
08005,0,0,1,0,0,0,0,0,0,0,0,0,0,0,0,1,0,1,0,0,0,-107.5198551656274,31.33197448293911,Chihuahua,Ascensión
08006,0,0,3,0,0,2,0,0,0,1,0,0,1,0,0,3,4,0,0,3,1,-107.291642796132,28.85799667595821,Chihuahua,Bachíniva
08007,0,0,0,0,0,0,0,0,0,0,0,0,0,0,1,0,0,1,0,0,0,-106.5429422637597,26.75306244053496,Chihuahua,Balleza
08011,0,1,3,0,0,2,0,0,2,4,0,1,0,1,0,0,1,3,0,0,1,-104.4236563190047,28.0336976704732,Chihuahua,Camargo
08012,0,1,1,0,1,0,0,0,0,0,1,0,0,0,0,0,0,1,0,0,0,-107.0632505535915,27.81014580475618,Chihuahua,Carichí
08013,0,0,2,0,0,0,0,0,1,0,1,0,0,0,0,0,0,4,0,0,0,-108.2022934167639,30.19391942877997,Chihuahua,Casas Grandes
08017,1,0,10,0,0,2,3,2,2,4,4,1,0,1,2,0,1,13,3,0,1,-106.948693692638,28.72346976773508,Chihuahua,Cuauhtémoc
08019,3,5,55,1,1,19,6,12,3,27,11,5,20,5,12,29,26,90,58,8,18,-106.2325258672669,29.0005522287784,Chihuahua,Chihuahua
08021,0,0,11,2,0,3,2,1,0,7,0,1,2,1,3,1,0,17,2,0,0,-105.4918591039935,28.11949156122888,Chihuahua,Delicias
08027,0,0,3,0,1,0,1,0,0,0,1,0,0,0,0,0,0,2,1,0,0,-107.2477648528399,27.15044173920271,Chihuahua,Guachochi
08028,2,1,2,0,0,0,0,1,0,0,0,0,1,0,0,0,2,0,0,2,0,-105.6405096927892,30.8272701141166,Chihuahua,Guadalupe
08029,0,0,0,0,0,0,0,0,0,0,0,0,0,0,0,0,0,1,0,0,0,-107.0339368096746,26.16798033301077,Chihuahua,Guadalupe y Calvo
08030,0,0,1,0,1,0,0,0,0,0,1,0,0,0,1,0,0,1,0,0,0,-108.2740564860661,27.39095152144915,Chihuahua,Guazapares
08032,0,0,6,0,0,4,3,0,3,2,2,1,3,2,2,1,0,8,3,0,0,-105.6970366849836,27.12904341137492,Chihuahua,Hidalgo del Parral
08036,0,0,2,0,0,3,1,0,1,2,0,1,2,1,1,0,0,1,3,0,0,-104.3907024582365,27.08210864229717,Chihuahua,Jiménez
08037,25,19,141,7,2,68,8,27,10,84,36,16,62,14,30,30,102,168,118,40,62,-106.5641134228629,31.44966527855755,Chihuahua,Juárez
08038,0,0,1,0,0,1,1,0,0,2,0,0,3,0,1,0,1,2,0,0,1,-105.0545047393849,28.54101074244463,Chihuahua,Julimes
08045,0,0,2,0,0,1,0,0,0,1,0,1,0,0,2,1,2,1,0,1,1,-105.501463551763,28.35062358847581,Chihuahua,Meoqui
08048,0,0,3,0,0,1,1,1,0,2,1,0,0,0,1,0,3,2,0,0,3,-107.1403844909673,29.29526008711986,Chihuahua,Namiquipa
08050,0,0,1,0,0,0,0,0,0,1,0,0,1,0,1,1,0,4,0,0,0,-107.7290614561115,30.53284910167963,Chihuahua,Nuevo Casas Grandes
08051,0,0,2,0,0,0,0,0,0,1,0,0,0,0,0,0,0,0,2,0,0,-108.204803997573,28.15363044202656,Chihuahua,Ocampo
08052,0,0,0,0,2,2,1,0,1,4,1,1,0,1,0,2,1,8,1,0,1,-104.5252959237702,29.36421990742938,Chihuahua,Ojinaga
08053,0,0,1,0,0,0,0,0,0,0,0,0,1,0,0,0,0,0,1,0,0,-105.9258836182698,31.23816290651832,Chihuahua,Praxedis G. Guerrero
08055,0,0,2,0,0,0,0,0,0,2,0,0,0,1,1,0,0,1,1,0,0,-105.7478246699927,28.20504901205462,Chihuahua,Rosales
08060,0,0,1,0,0,1,0,0,1,1,0,0,0,0,1,0,0,0,1,0,0,-105.7829218501231,26.8039227106495,Chihuahua,Santa Bárbara
08062,0,0,5,0,0,5,0,0,0,4,0,0,0,0,2,0,1,2,3,0,1,-105.3430296485737,28.00108937263901,Chihuahua,Saucillo
09000,0,0,0,0,0,0,0,1,0,0,0,0,0,0,0,0,0,1,1,0,0,,,,
09002,7,8,84,0,0,53,11,26,16,72,21,13,74,9,54,117,107,316,58,53,54,-99.18210694216141,19.4853286144489,Ciudad de México,Azcapotzalco
09003,8,9,87,8,4,75,14,28,22,97,29,17,98,13,87,206,142,390,81,51,91,-99.15037635226729,19.32666725332579,Ciudad de México,Coyoacán
09004,3,3,26,1,2,19,8,12,12,34,12,8,31,6,30,127,103,180,21,46,57,-99.31072852519479,19.32463430085633,Ciudad de México,Cuajimalpa de Morelos
09005,39,44,236,9,7,130,27,52,35,169,61,30,159,11,145,306,263,639,195,115,148,-99.1158642089222,19.50406520827707,Ciudad de México,Gustavo A. Madero
09006,6,4,82,3,3,67,7,27,7,87,14,15,90,11,56,162,103,253,76,43,60,-99.09432979684306,19.39691189689049,Ciudad de México,Iztacalco
09007,28,44,267,4,12,190,44,44,35,199,48,44,231,26,148,337,327,683,205,131,196,-99.05679896402994,19.34916632061229,Ciudad de México,Iztapalapa
09008,6,6,20,1,1,42,2,5,11,58,10,14,69,1,51,129,57,285,47,26,31,-99.26841290595702,19.26897650299831,Ciudad de México,La Magdalena Contreras
09009,0,2,9,0,4,17,1,4,7,17,2,3,42,3,23,115,47,109,30,22,25,-99.0510954217316,19.13945660041563,Ciudad de México,Milpa Alta
09010,15,17,78,6,3,80,12,28,26,109,41,30,117,20,81,230,178,450,116,74,104,-99.24681971231352,19.33617556179439,Ciudad de México,Álvaro Obregón
09011,2,5,48,1,6,36,11,13,6,49,9,5,61,4,39,146,48,227,92,23,25,-99.0028216148727,19.27699837714976,Ciudad de México,Tláhuac
09012,8,12,79,4,1,71,7,34,16,115,23,27,111,12,78,287,201,452,94,78,123,-99.20622079563364,19.19833967646461,Ciudad de México,Tlalpan
09013,8,6,57,4,6,66,10,17,15,77,27,8,76,10,75,212,104,341,81,39,65,-99.09036360426035,19.24514504599427,Ciudad de México,Xochimilco
09014,5,11,55,2,2,51,13,37,11,104,44,24,83,8,91,152,109,458,59,42,67,-99.16113465838411,19.38064241602143,Ciudad de México,Benito Juárez
09015,13,13,86,1,4,75,13,36,20,107,38,21,91,10,94,186,160,411,82,63,97,-99.14905575652713,19.43137342845858,Ciudad de México,Cuauhtémoc
09016,6,10,59,3,4,37,14,30,21,77,34,18,58,5,68,261,178,373,48,56,122,-99.20456691477467,19.42806236421468,Ciudad de México,Miguel Hidalgo
09017,10,11,64,2,2,62,10,19,13,64,22,7,65,7,57,129,105,253,60,40,65,-99.09310579820725,19.43049545468141,Ciudad de México,Venustiano Carranza
10001,0,0,1,0,0,0,0,0,0,0,0,0,0,0,1,0,0,1,0,0,0,-104.935886225826,24.51111583386699,Durango,Canatlán
10004,0,0,2,0,0,1,1,0,1,2,1,0,1,0,0,0,0,3,0,0,0,-103.7002874208618,24.69480557787946,Durango,Cuencamé
10005,0,4,12,2,1,19,8,7,9,28,26,8,14,3,16,13,5,100,16,2,3,-104.8437012410594,23.97048254577712,Durango,Durango
10006,0,0,2,0,0,2,0,0,0,2,0,0,1,0,0,0,1,0,1,1,0,-103.2120785764183,24.76151315942353,Durango,General Simón Bolívar
10007,4,2,23,1,0,22,6,13,6,37,10,6,19,2,21,6,10,143,55,3,7,-103.4906318025641,25.72797733764228,Durango,Gómez Palacio
10008,0,0,1,0,0,0,0,0,0,1,0,0,1,0,0,2,3,0,0,2,1,-104.0732779222647,24.41267443991691,Durango,Guadalupe Victoria
10011,0,0,0,0,0,0,0,0,0,0,0,0,0,0,0,0,0,1,0,0,0,-104.9955371157984,25.72622630555137,Durango,Indé
10012,0,0,4,0,0,5,1,0,3,8,5,3,6,1,4,2,1,20,18,1,0,-103.6858343997781,25.47764531312714,Durango,Lerdo
10013,0,0,2,0,0,1,0,0,0,2,0,2,0,0,2,0,1,3,0,1,0,-104.1313284958825,26.14599851133812,Durango,Mapimí
10015,0,0,1,0,0,1,0,0,0,0,0,0,0,0,0,0,0,1,0,0,0,-104.0776858612915,25.24709832990504,Durango,Nazas
10018,0,0,1,0,0,1,0,0,0,1,0,0,0,0,0,1,0,2,0,0,0,-105.2158506215353,25.54902414501324,Durango,El Oro
10022,0,0,0,0,0,0,0,0,0,1,0,0,0,0,0,0,0,1,0,0,0,-104.0219476789339,24.00355530239485,Durango,Poanas
10023,0,0,2,0,0,0,0,0,0,0,0,0,0,0,0,1,0,5,0,0,0,-105.3142655715886,23.4114424055958,Durango,Pueblo Nuevo
10024,0,1,2,0,0,1,0,0,0,2,0,1,0,0,0,0,0,3,0,0,0,-104.5616236902171,25.19530367807721,Durango,Rodeo
10027,0,0,1,0,0,0,1,0,0,1,0,0,0,0,0,0,0,1,0,0,0,-102.7180363391579,24.64752612916725,Durango,San Juan de Guadalupe
10028,0,0,1,0,0,1,0,1,0,1,0,0,1,0,0,0,1,1,0,1,0,-104.4704011513694,24.80735337288786,Durango,San Juan del Río
10029,0,0,1,0,0,1,0,0,0,1,0,1,1,0,0,0,0,1,0,0,0,-104.3064858844363,25.37610245228694,Durango,San Luis del Cordero
10032,0,1,2,0,0,1,2,0,0,2,0,1,0,1,1,0,0,2,0,0,0,-105.690421866674,24.98415696848923,Durango,Santiago Papasquiaro
10036,0,0,0,0,0,1,1,0,0,1,0,0,0,0,0,0,0,2,4,0,0,-103.6254837587114,26.34496393364988,Durango,Tlahualilo
10038,0,0,0,0,0,0,0,0,0,0,0,0,1,0,0,0,0,1,1,0,0,-103.9510544867163,23.73333998132977,Durango,Vicente Guerrero
10039,0,0,0,0,0,0,0,1,0,0,0,0,0,0,0,0,0,1,0,0,0,-105.0380311503879,24.84669493185297,Durango,Nuevo Ideal
11001,0,0,2,0,0,2,2,1,0,1,0,0,1,0,1,0,2,6,1,1,1,-101.5360119658492,20.53323095939436,Guanajuato,Abasolo
11002,1,2,13,0,0,8,2,1,1,8,1,1,4,2,2,9,4,44,1,1,3,-100.751967150518,20.05246688622412,Guanajuato,Acámbaro
11003,0,0,6,2,2,6,4,1,3,6,2,3,6,1,6,11,7,31,2,2,5,-100.7377273857994,20.92525060054887,Guanajuato,San Miguel de Allende
11004,0,0,0,0,0,2,0,0,1,2,0,1,0,1,0,1,0,8,0,0,0,-100.5735200704186,20.42184136556227,Guanajuato,Apaseo el Alto
11005,0,0,0,0,0,2,0,0,0,2,2,1,2,0,0,1,0,9,2,0,0,-100.6217357570525,20.57551186865756,Guanajuato,Apaseo el Grande
11006,0,0,0,0,0,0,0,0,0,0,0,0,0,0,0,0,0,1,0,0,0,-99.8044442891957,21.26519937843435,Guanajuato,Atarjea
11007,1,2,22,1,0,16,9,6,5,25,11,8,17,4,9,24,7,81,19,4,3,-100.7878649683268,20.5375655984125,Guanajuato,Celaya
11008,0,1,2,0,0,0,0,1,0,1,1,0,0,0,0,2,0,4,1,0,0,-101.8797839843118,20.71294733422224,Guanajuato,Manuel Doblado
11009,0,0,1,0,0,2,0,0,0,2,0,0,1,0,0,0,1,4,0,1,0,-100.7911226765556,20.74127251684711,Guanajuato,Comonfort
11010,0,0,0,0,0,0,0,0,0,1,1,0,1,0,0,1,0,5,0,0,0,-100.3835978498774,20.21700076768274,Guanajuato,Coroneo
11011,0,2,3,0,0,5,1,0,2,4,1,1,2,0,3,5,2,10,5,1,1,-100.9383702656058,20.42911363595492,Guanajuato,Cortazar
11012,0,0,1,0,0,2,1,1,0,0,0,0,1,0,3,2,0,10,0,0,0,-101.6680095872143,20.61522623085896,Guanajuato,Cuerámaro
11014,0,3,9,1,0,3,2,0,1,1,1,0,2,1,1,1,0,22,1,0,0,-100.9347772813945,21.14701686431212,Guanajuato,Dolores Hidalgo Cuna de la Independencia Nacional
11015,1,1,7,1,0,3,1,1,2,8,3,4,11,2,7,18,7,50,4,4,3,-101.2373289185754,21.01845430884661,Guanajuato,Guanajuato
11016,0,0,1,0,0,1,1,1,0,1,0,0,1,0,1,0,0,6,0,0,0,-101.4990039535911,20.36736544932315,Guanajuato,Huanímaro
11017,0,3,22,0,1,17,3,3,5,24,14,10,23,2,19,38,15,138,9,7,8,-101.3683207635647,20.69981349653075,Guanajuato,Irapuato
11018,0,1,3,0,0,1,2,1,0,2,0,0,3,0,2,0,0,8,1,0,0,-101.0520887230318,20.35879708902391,Guanajuato,Jaral del Progreso
11019,0,0,2,1,0,1,1,5,0,3,1,1,12,0,3,4,0,27,1,0,0,-100.5078824080625,20.19710833114612,Guanajuato,Jerécuaro
11020,0,5,44,12,4,58,23,33,26,109,49,15,76,18,90,583,46,1121,103,24,22,-101.6224026191234,21.12474924942978,Guanajuato,León
11021,0,0,0,1,0,3,1,1,1,1,2,1,1,0,2,4,1,11,2,0,1,-101.2446892679274,20.08431561817872,Guanajuato,Moroleón
11022,0,0,1,1,0,2,1,0,0,4,0,0,3,0,3,0,0,11,0,0,0,-101.4729969557284,21.57957050038754,Guanajuato,Ocampo
11023,1,0,3,0,0,4,2,0,0,7,0,0,4,1,2,7,3,15,2,1,2,-101.8158452366319,20.40161796844629,Guanajuato,Pénjamo
11024,0,0,0,0,0,1,0,0,0,0,0,0,0,0,0,1,0,1,0,0,0,-101.3612587579901,20.54992749190353,Guanajuato,Pueblo Nuevo
11025,0,0,0,0,0,2,0,0,0,0,0,0,0,0,0,5,0,10,0,0,0,-101.9285630599304,20.92751566818746,Guanajuato,Purísima del Rincón
11026,0,0,5,2,0,5,2,1,0,4,2,0,3,0,2,1,1,14,2,1,0,-101.5951285402979,20.82578970049202,Guanajuato,Romita
11027,5,3,17,0,0,21,4,9,3,20,9,3,27,1,8,36,24,68,12,10,14,-101.1650961038966,20.62511012398007,Guanajuato,Salamanca
11028,0,1,1,0,1,6,2,0,0,8,2,2,9,2,6,2,0,32,8,0,0,-100.9151309834994,20.2075615132037,Guanajuato,Salvatierra
11029,0,0,1,0,0,1,1,3,0,2,1,0,4,0,0,0,0,13,1,0,0,-100.8464137260976,21.44216589279974,Guanajuato,San Diego de la Unión
11030,0,1,4,1,0,3,3,0,1,3,0,1,2,0,4,1,0,23,0,0,0,-101.2336988761486,21.50320012807811,Guanajuato,San Felipe
11031,0,2,4,1,0,3,0,3,1,4,2,2,7,1,8,18,0,30,0,0,0,-101.7885196430904,20.91912408310506,Guanajuato,San Francisco del Rincón
11032,0,0,0,0,1,2,2,1,1,2,0,1,4,1,0,0,0,4,1,0,0,-100.3885917144312,21.00232178435602,Guanajuato,San José Iturbide
11033,0,1,5,1,0,5,2,1,0,3,0,2,7,0,3,4,3,17,2,2,1,-100.476249552597,21.39936839366509,Guanajuato,San Luis de la Paz
11034,0,0,0,0,0,0,0,0,0,0,0,0,0,0,0,0,0,1,0,0,0,-100.071901818839,21.15067775843553,Guanajuato,Santa Catarina
11035,0,0,1,0,0,2,1,0,1,3,0,1,0,2,0,0,0,5,2,0,0,-100.9940838799145,20.67410439551312,Guanajuato,Santa Cruz de Juventino Rosas
11036,0,0,0,0,0,0,1,0,0,2,0,0,1,0,1,0,0,3,0,0,0,-100.9903643694289,20.15823336440246,Guanajuato,Santiago Maravatío
11037,0,2,4,1,0,2,1,0,0,6,0,0,3,1,4,16,2,25,1,2,0,-101.4377836288191,20.96311535060798,Guanajuato,Silao de la Victoria
11038,0,0,1,0,0,2,1,0,0,2,0,0,2,0,1,0,0,9,2,0,0,-100.5289056886357,20.00447958380351,Guanajuato,Tarandacuao
11039,0,0,0,1,0,0,0,0,0,0,0,0,0,0,0,0,0,3,1,0,0,-100.7414966353577,20.29673592942504,Guanajuato,Tarimoro
11040,0,0,2,0,0,1,0,0,1,1,1,1,1,0,0,1,0,4,1,0,0,-100.1560062360936,21.03229119214322,Guanajuato,Tierra Blanca
11041,0,0,2,1,0,1,0,1,0,4,1,0,1,2,1,5,4,12,2,2,2,-101.1526159730255,20.11969238632124,Guanajuato,Uriangato
11042,0,0,2,0,0,4,1,1,0,5,1,1,6,0,4,4,1,16,2,0,1,-101.2705609280854,20.37832822787751,Guanajuato,Valle de Santiago
11043,0,0,0,0,0,0,0,0,0,0,0,0,0,0,0,0,0,1,0,0,0,-100.2146100355611,21.36595726518557,Guanajuato,Victoria
11044,0,0,2,0,0,1,1,0,0,3,1,0,0,1,0,2,1,7,0,1,0,-100.9925124002749,20.54196189879551,Guanajuato,Villagrán
11045,0,0,0,0,0,0,0,0,0,0,0,0,0,0,0,0,0,1,0,0,0,-99.97852130513571,21.35675968386514,Guanajuato,Xichú
11046,0,0,3,1,0,2,0,0,0,4,0,0,5,1,2,4,3,10,2,2,1,-101.2255261334969,20.183151012053,Guanajuato,Yuriria
12001,4,6,45,4,1,41,11,11,3,44,19,8,46,5,12,89,59,217,48,19,40,-99.71430891038001,16.95720019663077,Guerrero,Acapulco de Juárez
12002,0,0,2,0,0,0,0,0,0,0,0,0,0,0,0,2,2,1,0,0,2,-98.95137273897855,17.75227333125303,Guerrero,Ahuacuotzingo
12003,0,0,1,0,0,1,0,0,0,1,0,0,0,0,0,0,0,1,0,0,0,-100.6077338840879,17.91901542389334,Guerrero,Ajuchitlán del Progreso
12005,0,0,1,0,0,1,0,0,0,1,0,0,0,0,0,0,0,1,0,0,0,-98.51056917831856,17.64223531854941,Guerrero,Alpoyeca
12006,0,0,0,0,0,0,0,0,0,0,0,0,1,0,0,0,0,1,0,0,0,-99.98089741461777,18.09123112733895,Guerrero,Apaxtla
12007,0,0,1,0,0,0,0,0,0,0,0,0,0,0,0,0,0,2,0,0,0,-100.1987863817657,18.25261896975509,Guerrero,Arcelia
12008,1,0,1,0,0,1,0,0,0,1,0,0,1,0,0,0,1,0,0,1,0,-99.06995865249142,18.14437534750365,Guerrero,Atenango del Río
12010,0,0,0,0,1,1,0,0,0,0,0,0,0,0,0,0,0,0,1,0,0,-98.90304506711504,17.51433747638296,Guerrero,Atlixtac
12011,0,1,3,0,0,3,1,0,0,1,0,0,0,0,0,1,0,6,0,0,0,-100.3420675725555,17.33282229621636,Guerrero,Atoyac de Álvarez
12012,0,1,3,0,2,0,0,0,0,1,1,1,0,0,0,2,0,6,0,0,0,-99.0675363548564,16.95727113985252,Guerrero,Ayutla de los Libres
12013,0,0,0,0,0,0,0,1,0,0,0,0,0,0,0,0,0,1,0,0,0,-98.57240423054142,16.68360109670808,Guerrero,Azoyú
12014,0,0,0,0,0,0,0,0,0,0,0,0,0,0,0,0,0,1,0,0,0,-100.4271172740189,17.09654177146723,Guerrero,Benito Juárez
12015,0,0,1,0,0,0,1,0,0,1,0,0,0,1,0,0,0,1,0,0,0,-99.42073336489275,18.46156985857723,Guerrero,Buenavista de Cuéllar
12017,1,0,1,0,0,0,0,0,0,0,0,0,0,0,0,0,1,0,0,1,0,-99.71366374089706,18.13229580995013,Guerrero,Cocula
12018,0,0,2,0,0,0,1,1,0,1,0,1,0,0,0,0,0,1,1,0,0,-98.93060422382548,16.6080340652249,Guerrero,Copala
12021,0,0,0,0,0,0,0,0,0,0,0,0,0,0,0,3,3,0,0,2,1,-100.0589686996978,17.14254841700109,Guerrero,Coyuca de Benítez
12022,0,0,1,0,0,1,0,0,0,1,0,1,1,0,0,1,0,1,1,0,0,-100.9299063785821,18.08179439426529,Guerrero,Coyuca de Catalán
12023,0,0,1,0,0,1,0,0,0,1,0,1,1,1,0,0,0,0,1,0,0,-98.517670374157,16.46196848916269,Guerrero,Cuajinicuilapa
12027,0,0,0,0,0,1,0,0,0,0,0,0,0,0,0,0,0,2,0,0,0,-100.6179164350802,18.65981605172805,Guerrero,Cutzamala de Pinzón
12028,0,0,1,2,0,0,0,0,0,0,2,1,0,0,0,0,2,3,1,0,2,-99.11235956208338,17.52369125350152,Guerrero,Chilapa de Álvarez
12029,2,6,19,0,0,7,1,6,2,13,2,0,14,3,6,36,29,42,8,9,20,-99.69744738188948,17.39083353817021,Guerrero,Chilpancingo de los Bravo
12030,0,0,0,0,0,0,0,0,0,0,0,0,0,0,0,0,0,1,0,0,0,-99.13421992892063,16.69293166073249,Guerrero,Florencio Villarreal
12033,1,0,5,0,1,3,0,0,0,3,0,1,2,0,0,2,4,1,1,3,1,-98.54709157691023,17.81216329664574,Guerrero,Huamuxtitlán
12034,0,0,0,0,0,0,0,0,0,0,0,0,1,0,0,0,0,0,1,0,0,-99.25342176389624,18.22977373480739,Guerrero,Huitzuco de los Figueroa
12035,1,0,5,0,0,4,0,3,0,3,2,0,4,0,0,7,3,11,9,2,1,-99.58211983630076,18.22680758795732,Guerrero,Iguala de la Independencia
12038,0,0,2,0,0,2,0,1,0,2,0,0,1,1,1,2,1,8,3,0,1,-101.4341839196709,17.8200956403237,Guerrero,Zihuatanejo de Azueta
12039,0,0,0,0,0,0,0,0,0,0,0,0,0,0,0,0,0,1,0,0,0,-99.472925062543,17.14213312125657,Guerrero,Juan R. Escudero
12043,0,1,1,0,1,1,0,0,0,0,0,0,0,0,0,0,0,1,0,0,0,-98.43974507932795,17.1340262033895,Guerrero,Metlatónoc
12044,0,0,0,0,0,0,0,0,0,0,0,0,0,0,0,1,0,1,0,0,0,-99.37059790560743,17.33684138321475,Guerrero,Mochitlán
12046,0,0,2,0,0,1,0,0,0,1,2,0,2,0,1,1,0,5,1,0,0,-98.35281624053245,16.66156451235141,Guerrero,Ometepec
12048,0,0,2,0,0,2,1,0,0,0,0,0,0,0,0,0,0,4,0,0,0,-101.1603313602165,17.62009604167098,Guerrero,Petatlán
12050,0,0,1,0,0,1,0,0,0,0,0,0,1,0,0,2,0,3,0,0,0,-100.6114724937567,18.34562443206035,Guerrero,Pungarabato
12051,0,0,1,0,0,0,0,0,0,0,0,0,0,0,0,0,1,0,0,0,1,-99.18521692291878,17.31282285115519,Guerrero,Quechultenango
12052,0,1,1,0,0,1,1,0,0,0,0,0,0,0,0,0,0,1,0,0,0,-98.75107689424894,16.87635772223685,Guerrero,San Luis Acatlán
12053,0,1,1,0,0,1,0,4,0,1,0,0,2,0,0,2,2,5,1,0,2,-99.4090390700057,16.80869451648946,Guerrero,San Marcos
12055,2,1,11,0,0,5,0,1,1,8,2,1,7,1,3,7,6,14,4,4,2,-99.59744022978566,18.52004078725786,Guerrero,Taxco de Alarcón
12056,0,1,1,0,0,1,0,0,0,0,0,0,0,0,0,0,0,1,0,0,0,-99.29488665575583,16.98045465401729,Guerrero,Tecoanapa
12057,0,0,2,0,0,2,0,0,0,2,0,2,0,0,0,0,0,2,0,0,0,-100.7443641804364,17.40594413074369,Guerrero,Técpan de Galeana
12059,0,0,3,0,0,0,0,0,0,0,2,0,0,0,1,1,0,5,1,0,0,-99.46939368544226,18.10099880630177,Guerrero,Tepecoacuilco de Trujano
12060,0,0,1,0,0,0,0,0,0,0,0,0,0,0,0,0,0,1,0,0,0,-99.67176063607147,18.64884153311915,Guerrero,Tetipac
12061,0,0,3,0,1,0,0,0,0,1,0,0,0,1,0,1,2,3,0,0,2,-99.3674675528092,17.59935008932506,Guerrero,Tixtla de Guerrero
12066,0,0,1,0,7,0,0,0,0,1,0,0,5,0,0,7,2,2,10,1,1,-98.61554474550071,17.56217381035613,Guerrero,Tlapa de Comonfort
12069,0,1,1,0,1,0,0,0,0,0,0,0,1,0,0,0,1,0,0,0,1,-98.54148877496918,17.4298094299807,Guerrero,Xalpatláhuac
12070,0,2,4,0,0,3,2,0,0,0,0,1,3,0,2,0,5,2,0,3,2,-98.5092979223662,17.90451022878468,Guerrero,Xochihuehuetlán
12071,0,0,1,0,2,0,0,0,0,0,0,0,1,1,0,0,0,2,0,0,0,-98.15726883738819,16.86942691898495,Guerrero,Xochistlahuaca
12073,0,0,2,0,0,1,1,0,0,1,0,0,0,1,0,1,0,2,0,0,0,-101.21822673715,18.34492681529823,Guerrero,Zirándaro
12074,0,0,0,0,1,1,0,0,0,0,0,0,0,0,0,0,0,0,1,0,0,-99.18510853946988,17.74958440452043,Guerrero,Zitlala
12075,0,0,2,0,0,0,0,0,0,0,0,0,0,0,0,0,0,2,0,0,0,-99.60977484825807,17.80149173360968,Guerrero,Eduardo Neri
12081,0,0,0,0,1,0,0,0,0,0,0,0,0,0,0,0,0,1,0,0,0,-98.63787707706041,17.04710313597108,Guerrero,Iliatenco
13002,0,0,1,0,1,0,0,0,0,0,0,0,0,0,0,0,0,3,0,0,0,-98.19840393436104,20.15984946901978,Hidalgo,Acaxochitlán
13003,0,1,1,0,0,1,1,0,0,2,0,2,1,1,0,3,1,9,1,1,0,-98.88969145297611,20.31454677711939,Hidalgo,Actopan
13006,0,0,0,0,0,0,0,1,0,0,0,0,0,0,0,0,0,1,0,0,0,-99.40540380846684,20.40709358095036,Hidalgo,Alfajayucan
13007,0,0,1,0,0,0,0,0,0,0,0,0,0,0,1,1,0,0,1,0,0,-98.32707468406772,19.74162226297977,Hidalgo,Almoloya
13008,0,1,3,0,0,1,0,0,0,1,1,1,1,0,0,2,0,8,0,0,0,-98.4470011013397,19.72290463000279,Hidalgo,Apan
13009,0,0,1,0,0,1,1,0,0,1,0,2,0,1,0,0,0,3,0,0,0,-98.88257553388188,20.21714614752261,Hidalgo,El Arenal
13010,0,1,1,0,0,0,0,0,0,0,0,0,0,0,0,0,0,3,0,0,0,-99.22137491735818,20.05474563828954,Hidalgo,Atitalaquia
13012,0,0,0,0,0,0,0,0,0,0,0,0,0,0,0,1,0,1,0,0,0,-98.67648798846801,20.35483986983447,Hidalgo,Atotonilco el Grande
13013,1,0,0,1,0,2,0,0,0,3,1,0,3,0,0,3,4,4,0,2,2,-99.23137641554126,19.97344547763109,Hidalgo,Atotonilco de Tula
13015,0,0,0,0,1,0,0,0,0,0,0,0,0,0,0,0,0,2,0,0,0,-99.06019561509605,20.59916866979119,Hidalgo,Cardonal
13016,0,0,1,0,0,0,0,0,2,1,1,0,0,0,0,0,0,2,0,0,0,-98.28166824241714,19.98430843610051,Hidalgo,Cuautepec de Hinojosa
13017,0,0,0,0,0,0,0,0,0,1,0,1,0,0,0,0,0,1,0,0,0,-99.47164753072617,20.26368581209035,Hidalgo,Chapantongo
13019,0,0,1,0,1,0,0,0,0,0,0,0,0,0,0,0,1,0,0,0,1,-99.25513105204571,20.3243194596024,Hidalgo,Chilcuautla
13021,1,0,3,0,0,0,0,0,0,1,0,0,3,0,0,1,5,1,0,1,4,-98.60027245663012,19.65929692048592,Hidalgo,Emiliano Zapata
13022,0,0,1,0,0,1,0,0,0,0,0,0,0,0,0,0,1,2,2,0,1,-98.64393461426167,20.03214441432868,Hidalgo,Epazoyucan
13023,0,0,2,0,0,1,0,0,1,0,1,1,0,0,1,0,1,2,0,0,1,-99.08028489103616,20.2352792534788,Hidalgo,Francisco I. Madero
13024,0,0,0,0,0,0,0,0,0,0,0,0,1,0,0,0,1,0,0,0,1,-98.54312562115628,20.2259070512035,Hidalgo,Huasca de Ocampo
13027,0,0,1,0,1,0,1,0,0,1,0,0,0,0,0,1,0,1,0,0,0,-98.06408679088527,20.51415863666529,Hidalgo,Huehuetla
13028,0,1,4,0,1,0,0,0,0,1,1,0,3,0,2,6,1,10,1,0,1,-98.45171616235471,21.12723509600128,Hidalgo,Huejutla de Reyes
13029,0,0,1,0,0,0,0,0,1,0,1,0,0,0,0,0,0,1,0,0,0,-99.6807343729977,20.38381711027365,Hidalgo,Huichapan
13030,0,0,4,0,3,4,1,1,1,3,3,0,1,0,2,1,0,9,2,0,0,-99.20132324125575,20.53251507417501,Hidalgo,Ixmiquilpan
13034,0,0,0,0,0,1,0,0,0,1,0,0,0,0,0,0,0,1,0,0,0,-98.72330956442784,20.96215420914674,Hidalgo,Lolotla
13035,0,0,0,0,0,0,0,1,0,0,0,0,0,0,0,0,0,2,1,0,0,-98.34292257519455,20.25781407426818,Hidalgo,Metepec
13036,0,0,0,0,0,0,0,0,0,0,0,0,0,1,0,0,0,1,0,0,0,-98.60528533377187,20.5237932886745,Hidalgo,San Agustín Metzquititlán
13037,0,0,0,0,0,0,0,0,0,0,0,0,0,0,0,1,0,0,1,0,0,-98.80965291950761,20.56544655594019,Hidalgo,Metztitlán
13038,0,0,0,0,0,1,0,0,0,0,1,0,1,0,0,0,0,1,0,0,0,-98.75356021317317,20.22304183009864,Hidalgo,Mineral del Chico
13039,1,1,2,0,0,0,0,1,0,1,0,0,0,0,0,0,1,1,0,0,1,-98.65883191368403,20.14035541553008,Hidalgo,Mineral del Monte
13040,0,0,1,0,0,0,0,0,0,0,0,0,0,0,0,0,0,1,0,0,0,-99.07051197630457,21.07096294879274,Hidalgo,La Misión
13041,0,0,0,0,0,1,1,0,0,1,1,0,2,0,1,0,0,4,1,0,0,-99.18072622608489,20.22385341588856,Hidalgo,Mixquiahuala de Juárez
13042,0,0,0,0,0,0,0,0,0,0,0,0,0,0,0,0,0,1,0,0,0,-98.7764159841442,20.86438843938713,Hidalgo,Molango de Escamilla
13043,0,0,1,0,0,1,0,0,0,0,0,0,1,0,0,0,0,1,0,0,0,-99.17541268573964,20.78647346726215,Hidalgo,Nicolás Flores
13045,0,0,0,0,0,0,0,0,0,0,0,0,0,0,0,1,0,1,0,0,0,-98.6219647252002,20.17374553648552,Hidalgo,Omitlán de Juárez
13048,8,5,21,1,0,26,7,4,4,43,11,3,32,7,16,52,33,138,17,14,19,-98.78223051582201,20.10208402109619,Hidalgo,Pachuca de Soto
13049,0,0,1,0,0,0,1,0,0,0,0,1,0,0,0,1,0,2,0,0,0,-98.98883301791018,21.2344881624733,Hidalgo,Pisaflores
13050,0,0,0,0,0,0,0,0,1,1,1,0,0,0,1,0,0,2,0,0,0,-99.17815487944323,20.3143329256578,Hidalgo,Progreso de Obregón
13051,1,1,3,1,0,7,1,4,0,7,4,0,14,1,4,15,12,49,8,4,8,-98.72017323835064,20.05865871016092,Hidalgo,Mineral de la Reforma
13052,1,0,1,0,0,0,0,0,0,0,0,0,1,0,0,1,2,1,0,0,2,-98.94003559441985,20.0955747693291,Hidalgo,San Agustín Tlaxiaca
13053,0,0,0,0,0,0,0,0,0,1,0,0,1,0,0,0,0,1,0,0,0,-98.19105243189776,20.46851621284896,Hidalgo,San Bartolo Tutotepec
13054,0,0,0,0,0,1,0,0,0,0,0,0,1,0,0,1,0,2,0,0,0,-99.04786107266004,20.30474870465723,Hidalgo,San Salvador
13055,0,0,1,0,1,1,0,0,0,1,0,0,0,0,0,1,1,0,0,0,1,-98.98285335336918,20.41237061636485,Hidalgo,Santiago de Anaya
13056,0,1,2,0,0,0,0,0,1,1,1,1,1,0,2,1,0,6,0,0,0,-98.3927766457592,20.03565103319799,Hidalgo,Santiago Tulantepec de Lugo Guerrero
13058,0,0,1,0,0,1,1,0,0,0,1,0,0,1,0,0,0,1,0,0,0,-99.3758308847681,20.54233972642793,Hidalgo,Tasquillo
13059,0,0,2,1,0,0,0,0,0,1,0,0,0,0,0,2,0,5,0,0,0,-99.63243187850188,20.53926326728536,Hidalgo,Tecozautla
13060,0,0,0,0,0,0,0,0,0,0,0,0,0,0,0,0,0,2,0,0,0,-98.21083288260421,20.34335814279411,Hidalgo,Tenango de Doria
13061,0,0,4,0,0,2,1,1,0,1,1,0,1,0,2,1,2,16,0,1,1,-98.49478528496836,19.81553973110618,Hidalgo,Tepeapulco
13062,0,0,1,1,1,1,0,0,0,1,0,0,1,0,0,0,0,2,0,0,0,-98.83294325011002,21.06143030768866,Hidalgo,Tepehuacán de Guerrero
13063,0,0,0,0,0,1,0,0,0,2,0,0,2,0,2,2,1,7,0,0,1,-99.36350110963969,19.90266681327872,Hidalgo,Tepeji del Río de Ocampo
13064,0,0,1,0,0,0,0,0,1,0,0,0,1,0,0,0,0,2,0,0,0,-99.39870442336819,20.19422035881997,Hidalgo,Tepetitlán
13065,0,0,1,0,0,0,0,0,0,0,0,0,0,0,2,0,1,3,0,0,1,-99.15182642917644,20.11440699696905,Hidalgo,Tetepango
13066,0,0,0,0,0,0,0,0,0,0,0,0,0,0,0,0,0,1,0,0,0,-98.80336447104493,19.91282247054363,Hidalgo,Villa de Tezontepec
13067,0,0,2,1,0,2,0,0,0,1,0,0,2,0,0,1,2,2,0,0,2,-99.29328098843543,20.17886958743657,Hidalgo,Tezontepec de Aldama
13068,0,0,0,0,0,0,1,0,0,0,0,0,0,0,0,0,0,1,0,0,0,-98.54418537376799,20.77878538545617,Hidalgo,Tianguistengo
13069,0,0,7,3,0,3,1,2,2,6,2,0,7,0,4,6,12,30,5,5,7,-98.96118415334212,19.85252666098913,Hidalgo,Tizayuca
13070,0,0,0,0,0,0,0,0,0,0,0,0,0,0,1,3,1,2,0,0,1,-99.2190688850372,20.13155371548217,Hidalgo,Tlahuelilpan
13072,0,0,2,0,0,1,0,0,0,1,0,0,2,0,0,0,0,2,1,0,0,-98.58693201622454,19.83519920860619,Hidalgo,Tlanalapa
13073,0,0,0,0,1,0,0,0,0,0,0,0,0,0,0,0,0,1,2,0,0,-98.64818253127356,21.03183490646323,Hidalgo,Tlanchinol
13074,0,0,1,0,0,1,0,0,0,0,0,0,1,1,0,1,0,2,1,0,0,-99.23099148365058,20.09620420738042,Hidalgo,Tlaxcoapan
13075,0,0,0,0,0,1,0,0,1,0,0,0,0,0,1,0,0,1,1,0,0,-98.9233520230045,19.9549558758899,Hidalgo,Tolcayuca
13076,0,0,6,0,0,4,4,4,3,3,2,0,6,3,0,6,1,24,4,0,1,-99.37674249966844,20.06412922933548,Hidalgo,Tula de Allende
13077,0,0,10,1,1,7,2,1,3,4,2,1,8,1,7,3,7,25,2,4,3,-98.35093968468524,20.12360121159071,Hidalgo,Tulancingo de Bravo
13080,0,0,1,0,0,0,0,0,0,0,0,0,0,0,0,0,0,1,0,0,0,-98.38351714205447,20.91624986939742,Hidalgo,Yahualica
13081,0,0,1,0,0,1,1,0,0,1,0,0,0,0,0,0,0,3,2,0,0,-98.58672604884589,20.65074738466136,Hidalgo,Zacualtipán de Ángeles
13082,0,0,1,0,0,1,1,0,0,0,0,0,0,0,1,0,0,0,1,0,0,-98.85530216816734,19.99260550732116,Hidalgo,Zapotlán de Juárez
13083,0,0,0,0,0,1,0,1,1,0,2,0,2,0,2,2,1,11,1,1,0,-98.67233409430726,19.92313039839177,Hidalgo,Zempoala
13084,0,0,1,0,0,1,0,0,0,0,0,0,0,0,0,0,1,3,0,0,1,-99.3657267189114,20.75287884011421,Hidalgo,Zimapán
14001,1,1,4,0,0,4,3,1,1,2,0,1,0,0,3,18,2,19,1,0,2,-102.9091587682281,20.77005269958451,Jalisco,Acatic
14002,0,0,3,0,0,3,1,1,0,2,1,1,2,2,1,3,0,8,0,0,0,-103.6088456752002,20.42849351014409,Jalisco,Acatlán de Juárez
14003,0,0,0,0,0,0,0,0,0,0,0,0,1,0,0,2,0,2,0,0,0,-103.935361901408,20.71146650037786,Jalisco,Ahualulco de Mercado
14004,0,0,0,0,0,0,0,0,0,0,0,0,0,0,0,0,0,1,0,0,0,-103.6225835252603,19.99994645689521,Jalisco,Amacueca
14005,0,0,1,0,0,0,2,0,0,1,0,0,0,0,1,1,0,3,0,0,0,-103.7172519115949,20.84998982473491,Jalisco,Amatitán
14006,0,0,0,0,0,1,0,0,0,0,0,1,1,0,0,3,1,3,1,0,1,-104.0805432718186,20.54166389650632,Jalisco,Ameca
14008,0,0,0,0,0,1,0,1,0,1,0,0,0,0,0,3,0,5,0,0,0,-102.3006183690488,20.76643741929453,Jalisco,Arandas
14009,0,0,0,0,0,0,0,0,0,1,1,0,0,0,1,3,0,4,0,0,0,-103.6790141397312,20.75497256311577,Jalisco,El Arenal
14011,0,0,0,0,0,0,0,0,0,0,0,0,0,0,0,2,0,2,0,0,0,-104.2739249325659,20.31807550897698,Jalisco,Atengo
14012,0,1,1,0,0,1,0,0,1,1,0,0,1,1,0,1,0,1,0,0,0,-104.5506741199882,20.33673410992793,Jalisco,Atenguillo
14013,0,0,1,0,0,0,1,0,0,1,1,0,3,0,1,0,0,9,0,0,0,-102.5396146353324,20.54756608124767,Jalisco,Atotonilco el Alto
14014,0,0,0,0,0,0,0,0,0,0,0,0,0,0,1,1,0,1,0,0,0,-103.4704690633519,19.99643920990699,Jalisco,Atoyac
14015,0,0,5,0,0,6,3,3,0,12,2,1,11,2,4,21,0,43,1,0,0,-104.3121564125599,19.74346643872178,Jalisco,Autlán de Navarro
14016,0,0,1,0,0,2,0,0,0,0,0,0,2,0,0,2,0,3,0,0,0,-102.3429277671595,20.48882100595906,Jalisco,Ayotlán
14017,0,0,0,0,0,0,0,1,0,0,0,0,1,0,0,7,0,7,0,0,0,-104.4348226858903,20.05025735097934,Jalisco,Ayutla
14018,0,0,2,0,0,3,0,1,0,3,0,1,2,0,1,8,0,10,7,0,0,-102.5232996960508,20.36382714231382,Jalisco,La Barca
14020,0,0,0,1,0,0,0,0,0,0,0,0,0,0,0,1,0,1,0,0,0,-105.4065664775178,20.3424032626085,Jalisco,Cabo Corrientes
14021,0,0,0,0,0,0,0,0,0,0,0,0,0,0,0,1,0,1,0,0,0,-104.4701611456481,19.60294868697826,Jalisco,Casimiro Castillo
14022,0,1,0,0,0,1,0,1,0,4,0,2,5,0,3,17,0,21,2,0,0,-104.6149475238932,19.27737714546776,Jalisco,Cihuatlán
14023,0,0,2,0,0,2,2,1,2,5,1,0,6,1,5,7,0,35,7,0,0,-103.5103369149496,19.71077366591145,Jalisco,Zapotlán el Grande
14024,0,2,4,0,0,3,2,1,1,6,1,2,1,3,2,10,1,12,2,0,1,-103.8244592488814,20.39035317954262,Jalisco,Cocula
14025,0,0,0,0,0,0,0,1,0,0,1,0,0,0,0,1,0,1,0,0,0,-103.2872010629904,22.09170960811588,Jalisco,Colotlán
14026,0,0,0,0,0,1,0,0,0,0,0,0,0,0,1,0,0,2,0,0,0,-103.2364280111839,19.98241521819858,Jalisco,Concepción de Buenos Aires
14027,0,0,2,0,0,2,0,0,0,0,0,1,0,1,1,2,0,5,1,0,0,-104.3110529589938,19.43563169364485,Jalisco,Cuautitlán de García Barragán
14028,0,0,0,0,0,1,0,0,0,1,0,0,1,0,0,30,10,22,0,5,5,-104.5098564961179,20.19299643467757,Jalisco,Cuautla
14029,0,0,0,0,0,2,2,1,0,4,2,0,0,0,2,3,0,6,3,0,0,-103.0287168069464,20.95240228851479,Jalisco,Cuquío
14030,0,0,0,1,0,1,0,0,0,0,1,0,3,0,1,3,0,9,1,0,0,-103.1879112444196,20.2598603262741,Jalisco,Chapala
14032,0,0,0,0,0,0,0,0,0,0,0,0,0,0,0,0,0,1,0,0,0,-103.8801849451729,20.08228397390587,Jalisco,Chiquilistlán
14033,0,0,0,0,0,0,0,1,0,0,0,0,0,0,0,1,0,2,0,0,0,-102.1677902437209,20.44789176902137,Jalisco,Degollado
14035,0,1,3,0,0,1,0,0,1,1,0,0,1,0,0,0,0,3,0,0,0,-102.19147983,21.55570521748746,Jalisco,Encarnación de Díaz
14036,0,0,0,0,0,0,0,0,0,0,0,0,0,0,0,0,0,3,0,0,0,-104.1237680261878,20.74360686378165,Jalisco,Etzatlán
14037,1,1,2,0,0,0,0,1,1,1,2,1,1,0,0,18,3,20,0,1,2,-104.1951248114265,19.80105573501257,Jalisco,El Grullo
14039,4,8,114,17,4,98,27,68,33,170,83,41,105,38,130,242,69,780,107,29,40,-103.3357483230028,20.67621886126019,Jalisco,Guadalajara
14040,0,0,0,0,0,0,0,0,0,0,0,0,1,1,0,0,0,1,0,0,0,-104.0754075456454,21.0574643283708,Jalisco,Hostotipaquillo
14042,0,0,0,0,0,0,0,0,0,0,0,0,0,0,0,1,0,1,0,0,0,-103.9162128365133,22.58370014635751,Jalisco,Huejuquilla el Alto
14043,0,0,0,0,0,0,0,1,0,0,1,0,1,0,0,8,0,10,0,0,0,-104.8630895542735,19.51472736174559,Jalisco,La Huerta
14044,0,0,0,0,0,1,1,0,0,1,1,0,0,1,0,0,0,1,1,0,0,-103.2073764360502,20.39164219562974,Jalisco,Ixtlahuacán de los Membrillos
14045,0,0,1,0,0,0,0,0,0,2,1,0,1,0,0,0,0,6,1,0,0,-103.227811732645,20.89856091816403,Jalisco,Ixtlahuacán del Río
14046,0,0,1,0,1,1,2,0,2,2,1,2,1,1,1,0,0,2,0,0,0,-102.4893397349989,21.19166622417316,Jalisco,Jalostotitlán
14047,0,0,0,0,0,1,1,1,1,3,0,0,1,0,0,7,4,4,0,2,2,-102.6856745251245,20.28013080578422,Jalisco,Jamay
14048,0,0,0,0,0,1,0,0,0,1,0,0,2,0,0,0,0,1,1,0,0,-102.119865215148,20.63546774443905,Jalisco,Jesús María
14050,0,0,4,1,0,2,2,2,1,1,0,2,1,1,4,7,0,15,0,0,0,-103.4171812942524,20.31451142097392,Jalisco,Jocotepec
14051,0,0,0,0,1,1,0,0,0,1,0,0,1,0,0,2,0,3,4,0,0,-103.1352113354853,20.48171970700161,Jalisco,Juanacatlán
14052,0,0,0,0,0,0,0,0,0,0,0,0,0,0,0,1,0,1,0,0,0,-104.0366571248826,20.05424235436123,Jalisco,Juchitlán
14053,0,1,8,1,0,9,3,1,0,7,4,2,5,3,5,4,1,42,1,0,1,-101.8796565717764,21.49401265919559,Jalisco,Lagos de Moreno
14054,0,0,2,0,0,1,0,1,0,3,0,0,2,0,0,2,0,4,0,0,0,-104.1003184367615,19.84079338258667,Jalisco,El Limón
14055,0,0,1,0,0,0,0,1,1,2,1,1,1,0,1,4,0,5,1,0,0,-104.0307697644669,20.90825220878825,Jalisco,Magdalena
14058,0,0,0,0,0,0,0,0,0,0,0,0,0,0,0,1,0,0,4,0,0,-104.8140600335372,20.5789458857693,Jalisco,Mascota
14059,0,0,0,0,0,0,0,0,1,0,1,0,0,0,0,0,0,1,1,0,0,-103.0725340109324,19.89423913633494,Jalisco,Mazamitla
14060,0,0,0,0,0,0,0,0,0,0,0,0,0,0,0,0,0,1,0,0,0,-102.7535341010161,21.26385324697461,Jalisco,Mexticacán
14061,0,0,1,0,1,0,0,0,0,0,1,0,0,0,0,0,0,1,0,0,0,-103.9944275054154,22.22244116134555,Jalisco,Mezquitic
14063,0,0,3,0,0,10,1,2,1,11,4,2,14,1,6,4,2,32,7,1,1,-102.7240506183486,20.39744146722993,Jalisco,Ocotlán
14064,0,0,2,0,0,1,0,0,1,1,0,1,2,0,0,6,0,8,0,0,0,-101.7151165877128,21.81083021123485,Jalisco,Ojuelos de Jalisco
14065,0,0,0,0,0,0,0,0,0,0,0,0,0,0,0,0,0,1,0,0,0,-103.3818618750115,19.14655025655208,Jalisco,Pihuamo
14066,0,2,2,0,0,1,0,0,0,0,0,0,0,0,0,3,0,6,1,0,0,-102.8947190737038,20.2702153835805,Jalisco,Poncitlán
14067,3,2,22,2,2,17,0,9,7,27,11,5,26,4,21,55,22,122,33,9,13,-105.1491456305749,20.69785936905502,Jalisco,Puerto Vallarta
14068,0,1,1,0,0,1,1,0,0,0,0,1,0,0,1,3,0,6,0,0,0,-104.7228426471852,19.80719022283326,Jalisco,Villa Purificación
14069,0,0,0,0,0,0,1,0,0,1,0,1,0,0,1,2,0,2,0,0,0,-102.8682414033533,19.80453814052574,Jalisco,Quitupan
14070,0,0,8,0,0,3,0,4,3,8,5,2,6,2,4,14,0,38,16,0,0,-103.2454572502534,20.53902525625994,Jalisco,El Salto
14073,0,0,6,0,0,0,0,0,0,1,1,0,1,1,5,9,2,14,0,0,2,-102.2943526276538,21.26969602767863,Jalisco,San Juan de los Lagos
14074,0,1,2,1,0,2,0,2,1,0,0,0,3,0,1,10,2,10,1,1,1,-102.1634754705827,20.9976613439887,Jalisco,San Julián
14076,0,0,0,1,0,0,0,0,0,0,0,0,0,0,0,0,0,1,0,0,0,-103.7850121841339,21.59589295948848,Jalisco,San Martín de Bolaños
14077,0,0,3,0,0,2,1,2,0,5,0,0,3,0,1,8,1,9,0,0,1,-103.9051365282161,20.44992063581671,Jalisco,San Martín Hidalgo
14078,0,1,3,0,0,1,1,0,2,3,4,3,2,1,0,7,0,8,1,0,0,-102.3796421884883,20.99259447371936,Jalisco,San Miguel el Alto
14079,0,0,0,0,0,1,0,0,0,1,0,0,0,0,1,2,0,2,0,0,0,-103.4171853468226,19.85645666229131,Jalisco,Gómez Farías
14081,0,0,1,0,0,1,0,0,0,1,0,1,0,1,0,0,0,1,0,0,0,-103.1812810488432,22.19330689251962,Jalisco,Santa María de los Ángeles
14082,0,0,1,0,0,0,0,0,0,1,1,0,1,0,0,2,0,4,0,0,0,-103.5946439222792,19.86176203031375,Jalisco,Sayula
14083,0,0,1,1,0,3,0,2,1,3,3,0,3,1,1,3,0,18,1,0,0,-103.6821935740586,20.60742027537637,Jalisco,Tala
14085,0,0,1,0,0,1,0,1,0,0,0,0,1,0,0,2,0,3,1,0,0,-103.1792875854065,19.68747469723454,Jalisco,Tamazula de Gordiano
14086,0,0,1,0,0,0,0,0,0,0,1,0,0,0,0,2,0,2,0,0,0,-103.7654713979431,19.94823864996572,Jalisco,Tapalpa
14087,0,0,1,0,0,0,0,0,0,0,0,0,0,0,0,1,0,2,0,0,0,-103.1925310146575,19.22529779657085,Jalisco,Tecalitlán
14088,1,1,4,0,0,3,1,0,0,2,0,1,1,1,1,5,2,6,0,1,1,-104.0241829104101,20.25922375006986,Jalisco,Tecolotlán
14089,0,0,0,0,0,0,0,0,0,0,0,0,0,0,0,0,0,1,0,0,0,-103.5752623640796,20.09243218455391,Jalisco,Techaluta de Montenegro
14090,0,0,0,0,0,0,0,0,0,0,0,0,0,0,0,0,0,1,0,0,0,-104.1655293838729,20.14688816575546,Jalisco,Tenamaxtlán
14091,0,0,1,0,0,0,0,0,0,0,0,0,0,0,0,0,0,1,0,0,0,-102.5544777412654,21.48035762462792,Jalisco,Teocaltiche
14093,0,0,15,1,1,3,7,9,5,6,9,5,15,3,17,70,0,105,3,0,0,-102.7208428761064,20.81484227552205,Jalisco,Tepatitlán de Morelos
14094,1,1,4,0,0,3,1,0,0,7,1,0,4,0,0,38,4,37,3,2,2,-103.780961919897,21.11246071843091,Jalisco,Tequila
14095,0,0,0,0,0,0,0,0,0,0,0,0,0,0,0,1,0,1,0,0,0,-103.8323881928464,20.67925845191961,Jalisco,Teuchitlán
14096,0,0,0,0,0,3,0,0,0,3,0,1,5,0,1,10,2,7,2,0,2,-103.0710725499337,20.1196220237717,Jalisco,Tizapán el Alto
14097,0,2,23,3,2,20,9,17,8,28,11,7,29,4,25,44,3,140,20,1,2,-103.4173673382367,20.47869601260225,Jalisco,Tlajomulco de Zúñiga
14098,0,0,21,2,0,17,5,12,7,29,10,7,20,11,21,33,3,130,25,1,2,-103.3478552203237,20.59148136889098,Jalisco,San Pedro Tlaquepaque
14099,0,0,1,0,0,1,1,0,0,1,0,0,1,0,0,0,0,1,0,0,0,-103.9305673793901,19.55288983660494,Jalisco,Tolimán
14100,1,0,2,0,0,3,1,0,0,6,8,0,4,0,2,24,3,25,0,2,1,-105.1647452978802,19.97952463591706,Jalisco,Tomatlán
14101,1,2,14,4,1,16,5,12,4,28,8,5,23,6,43,31,4,149,43,0,4,-103.2143446957583,20.62005309438989,Jalisco,Tonalá
14102,0,0,1,0,0,0,0,1,0,0,0,0,0,0,0,2,0,2,0,0,0,-103.9501799266273,19.84789868462121,Jalisco,Tonaya
14103,0,0,0,0,0,0,0,0,0,0,0,0,0,0,0,0,0,1,0,0,0,-103.5350893787713,19.43210151648909,Jalisco,Tonila
14104,0,0,0,0,0,1,0,0,0,1,0,1,1,0,0,0,0,2,0,0,0,-103.4785742140434,21.95891053350564,Jalisco,Totatiche
14105,0,0,0,0,0,1,1,0,0,2,0,0,1,0,1,1,0,2,0,0,0,-102.7487185026519,20.54872806614564,Jalisco,Tototlán
14106,0,0,0,0,0,0,0,0,0,0,0,0,0,0,0,0,0,1,0,0,0,-104.0331604316205,19.68122188181107,Jalisco,Tuxcacuesco
14107,0,0,0,0,0,0,0,0,0,0,0,1,0,0,1,1,0,2,0,0,0,-103.242036241892,20.14689801249887,Jalisco,Tuxcueca
14108,0,0,4,0,0,2,2,1,0,5,0,1,4,1,3,1,1,8,0,1,0,-103.4572643698513,19.47902981486661,Jalisco,Tuxpan
14111,0,0,0,0,0,0,0,0,0,0,0,0,0,0,0,0,0,0,1,0,0,-102.6509561242761,21.04651515544698,Jalisco,Valle de Guadalupe
14117,0,0,0,0,0,0,0,0,0,0,0,0,0,0,0,3,0,3,0,0,0,-102.701228546063,21.15982260680487,Jalisco,Cañadas de Obregón
14118,0,0,3,0,1,4,1,3,0,1,0,0,6,0,8,21,1,27,0,1,0,-102.9336607762833,21.13793646507798,Jalisco,Yahualica de González Gallo
14119,0,0,2,0,0,1,0,0,0,1,0,0,0,1,1,0,0,3,0,0,0,-103.5680598114684,20.23551777958988,Jalisco,Zacoalco de Torres
14120,0,5,54,9,3,57,16,37,21,106,71,24,76,16,90,320,54,676,52,23,31,-103.4942100013882,20.79490429079154,Jalisco,Zapopan
14121,0,0,1,0,0,1,1,0,0,2,1,0,1,1,0,0,0,2,0,0,0,-103.3457807584031,19.6216054624054,Jalisco,Zapotiltic
14123,0,0,0,0,0,1,0,0,0,1,0,0,0,0,0,0,0,1,0,0,0,-102.9249739856054,20.46086374478768,Jalisco,Zapotlán del Rey
14124,0,1,3,1,0,3,0,1,0,3,3,1,2,0,2,8,0,18,1,0,0,-103.0488368492046,20.63604761155815,Jalisco,Zapotlanejo
14125,0,0,1,1,0,0,0,2,0,0,1,0,2,0,1,3,0,4,0,0,0,-102.5064046673177,20.76460748588749,Jalisco,San Ignacio Cerro Gordo
15001,0,0,5,0,0,1,0,0,0,1,0,0,1,0,1,5,1,6,4,1,0,-99.87153025980412,19.97294169315208,México,Acambay de Ruíz Castañeda
15002,0,0,3,0,0,2,1,2,0,4,1,1,4,0,4,7,6,13,10,3,3,-98.91986209959762,19.6337736626143,México,Acolman
15003,0,0,0,0,0,0,0,0,0,0,0,0,1,0,0,1,0,3,0,0,0,-99.83334660853153,20.11567647350017,México,Aculco
15004,0,0,1,0,0,0,1,0,0,0,1,0,0,0,0,0,0,1,2,0,0,-99.8667955363106,18.83295886556822,México,Almoloya de Alquisiras
15005,0,2,10,0,0,2,2,2,1,4,4,1,6,0,4,8,4,18,6,2,2,-99.82940583637271,19.40541435148603,México,Almoloya de Juárez
15006,0,0,0,0,0,0,0,0,0,0,0,0,0,0,0,1,0,0,2,0,0,-99.49187295456582,19.15877979652908,México,Almoloya del Río
15007,0,0,3,0,0,0,0,0,0,0,0,0,0,0,1,0,0,3,2,0,0,-99.98839320258355,19.25093148545302,México,Amanalco
15008,0,0,1,0,0,0,0,0,0,0,0,0,0,0,0,1,1,2,0,1,0,-100.2668015227529,18.70299251883127,México,Amatepec
15009,0,0,3,0,0,2,0,1,0,2,0,1,3,0,0,3,2,4,7,0,2,-98.71656332817632,19.12488714962637,México,Amecameca
15010,0,0,1,0,0,0,0,0,0,0,0,0,0,0,0,1,0,3,1,0,0,-99.14789892437017,19.98450892542976,México,Apaxco
15011,0,1,3,0,0,2,0,0,0,1,0,0,1,1,2,0,2,6,1,0,2,-98.96213221649553,19.54543135772633,México,Atenco
15012,1,2,19,0,0,8,2,2,4,17,6,3,9,6,5,11,14,44,16,4,10,-99.49997515750884,19.17554555845835,México,Atizapán
15013,6,14,52,0,4,27,6,5,7,33,8,7,29,7,29,50,50,82,44,28,22,-99.27404398941948,19.56480728446554,México,Atizapán de Zaragoza
15014,1,2,5,0,0,2,0,0,1,3,0,0,2,0,1,12,2,16,1,0,2,-99.84581628087224,19.80985285793983,México,Atlacomulco
15015,0,0,0,0,0,0,0,0,0,0,0,0,1,0,1,0,0,2,1,0,0,-98.7170646714784,19.03110808708894,México,Atlautla
15016,0,0,0,0,0,0,0,0,0,0,1,0,1,0,0,3,0,3,3,0,0,-98.72129627718273,19.76305720105764,México,Axapusco
15017,0,0,0,0,0,1,0,0,0,1,0,0,0,0,0,0,0,1,0,0,0,-98.81635586347167,19.12429093529894,México,Ayapango
15018,0,1,4,1,1,0,1,1,1,2,3,0,1,0,5,7,2,15,9,1,1,-99.64325788054039,19.16553448041584,México,Calimaya
15019,0,2,4,0,0,0,0,0,0,1,0,0,1,0,2,2,2,0,4,0,2,-99.46055090459306,19.2098260564155,México,Capulhuac
15020,2,2,27,0,0,16,4,7,0,18,1,6,12,1,10,19,27,43,26,7,20,-99.10239554349052,19.62628999930689,México,Coacalco de Berriozábal
15021,0,0,0,0,0,0,0,0,0,0,0,0,1,0,0,7,1,9,0,0,1,-99.79936634267351,18.9455352064851,México,Coatepec Harinas
15022,0,0,0,0,0,0,0,0,1,0,0,0,1,0,1,2,1,2,1,1,0,-98.85889492467962,19.22602957010347,México,Cocotitlán
15023,0,0,4,0,0,2,0,0,1,2,0,0,1,1,2,0,1,4,2,0,1,-99.22220534234432,19.78998449019054,México,Coyotepec
15024,1,4,30,1,1,11,1,3,1,15,2,5,13,2,13,34,33,44,18,13,20,-99.15945203129674,19.70821392769968,México,Cuautitlán
15025,2,9,57,4,3,28,14,3,8,35,8,9,33,0,18,38,32,90,69,11,21,-98.83168617062087,19.25359716709124,México,Chalco
15026,0,0,0,0,0,0,0,0,0,0,0,0,0,0,0,0,0,2,0,0,0,-99.55093910600233,19.82575535732426,México,Chapa de Mota
15028,0,0,1,0,0,0,0,0,0,1,0,0,0,0,0,0,0,4,0,0,0,-98.88387265463106,19.57302919272765,México,Chiautla
15029,0,0,16,1,0,6,2,1,1,10,2,2,10,2,3,12,11,26,15,3,8,-98.87757302235617,19.40629462972111,México,Chicoloapan
15030,0,0,0,0,0,1,0,1,1,0,1,1,1,0,0,0,0,0,3,0,0,-98.89669567946146,19.55627848891798,México,Chiconcuac
15031,5,16,81,1,1,39,9,3,6,34,6,7,46,4,16,40,54,61,68,17,37,-98.94720806461905,19.41627370484858,México,Chimalhuacán
15032,0,0,1,0,2,2,0,0,0,0,0,0,0,0,0,0,0,3,1,0,0,-100.1848434033852,19.31644199345087,México,Donato Guerra
15033,6,19,163,5,6,91,16,19,16,102,27,21,103,19,79,129,138,319,135,51,87,-99.0432117732398,19.57278366946937,México,Ecatepec de Morelos
15035,0,0,5,0,0,4,0,0,0,5,1,1,8,2,1,9,5,19,1,1,4,-99.25502816858092,19.82263264159972,México,Huehuetoca
15036,0,0,1,0,0,0,0,0,0,0,0,0,0,0,0,0,0,2,1,0,0,-99.02800775295016,19.95241234644255,México,Hueypoxtla
15037,1,4,30,1,1,18,4,8,7,46,13,10,22,4,22,75,64,155,20,24,40,-99.33952760150574,19.38310082600231,México,Huixquilucan
15038,0,0,0,0,0,0,0,0,0,0,0,0,0,0,0,0,0,0,1,0,0,-99.44037607848357,19.55424328096985,México,Isidro Fabela
15039,5,3,33,1,1,21,3,6,3,27,3,3,26,4,21,34,37,59,40,17,20,-98.77905525700358,19.34280188345286,México,Ixtapaluca
15040,0,0,0,0,0,0,0,1,0,0,0,0,0,0,0,0,0,2,0,0,0,-99.69084109587916,18.8506965524277,México,Ixtapan de la Sal
15041,0,0,1,0,0,1,0,0,0,1,0,0,0,0,0,0,0,1,0,0,0,-100.2778499094059,19.2574263846391,México,Ixtapan del Oro
15042,1,3,22,0,3,5,4,0,0,7,1,2,5,1,4,5,6,7,18,1,5,-99.8070303889247,19.5895959398335,México,Ixtlahuaca
15043,0,2,3,0,0,2,0,0,0,1,0,0,2,0,0,0,1,1,2,0,1,-99.35927063159589,19.16524522317657,México,Xalatlaco
15044,0,0,1,0,0,0,0,0,0,0,0,0,0,0,0,1,1,1,1,0,1,-99.08893023403468,19.73871674816996,México,Jaltenco
15045,0,1,1,0,0,2,1,0,0,1,0,0,1,2,0,0,0,5,0,0,0,-99.59656929609706,20.01910288723064,México,Jilotepec
15046,0,0,0,0,0,0,0,0,0,0,0,0,0,0,0,0,0,1,1,0,0,-99.39043696689477,19.50604720859251,México,Jilotzingo
15047,0,1,3,0,0,1,0,0,0,0,2,0,0,0,0,2,1,4,1,1,0,-99.64161763926808,19.5860846038745,México,Jiquipilco
15048,0,2,4,0,0,0,0,0,0,0,1,0,2,0,1,1,2,2,1,0,2,-99.8236068190847,19.71719206518024,México,Jocotitlán
15049,0,1,2,0,0,0,0,0,0,0,0,0,0,0,0,0,0,0,2,0,0,-99.51448152220004,19.0675669710472,México,Joquicingo
15050,0,0,1,0,0,0,0,0,0,0,0,0,0,0,0,0,0,0,1,0,0,-98.90408243683375,19.09359393540843,México,Juchitepec
15051,0,1,10,1,0,3,3,1,1,8,1,0,5,1,4,8,7,20,11,2,5,-99.47486233095435,19.34508347759112,México,Lerma
15053,0,0,4,0,0,1,0,0,0,3,0,0,2,1,0,3,4,3,3,2,2,-99.13354781076947,19.70965058502809,México,Melchor Ocampo
15054,1,3,18,3,1,16,5,4,11,31,10,9,23,4,15,55,20,99,33,12,8,-99.58826349135369,19.247391548658,México,Metepec
15055,0,0,2,0,0,1,1,0,0,0,1,2,0,0,0,1,0,2,2,0,0,-99.58313027642423,19.21108654995129,México,Mexicaltzingo
15056,0,0,2,0,0,0,1,0,1,1,0,0,0,2,1,2,0,4,1,0,0,-99.6417581550751,19.74347258120813,México,Morelos
15057,4,7,99,3,5,60,12,17,9,85,23,13,69,10,63,125,96,275,107,36,60,-99.29260539376479,19.4712531464382,México,Naucalpan de Juárez
15058,12,14,155,5,2,94,20,31,19,100,47,19,124,11,62,178,140,309,165,68,72,-99.02269951694664,19.42257865636755,México,Nezahualcóyotl
15059,0,0,4,0,0,2,1,0,0,2,0,0,3,0,1,2,1,5,1,1,0,-99.0745237149473,19.72993818746466,México,Nextlalpan
15060,5,6,35,0,0,28,7,7,2,42,13,8,39,8,27,19,45,55,65,20,25,-99.39174975822455,19.62497301524464,México,Nicolás Romero
15061,0,0,1,0,0,0,0,1,0,0,0,0,0,0,0,1,1,1,0,1,0,-98.71708912175514,19.8123143351571,México,Nopaltepec
15062,0,0,2,0,1,1,0,0,0,3,1,0,1,0,1,3,0,6,2,0,0,-99.40628254454661,19.2595152132334,México,Ocoyoacac
15063,0,0,1,0,0,0,0,0,0,0,0,0,0,0,0,0,0,1,0,0,0,-99.39641629120632,19.00923409702335,México,Ocuilan
15064,0,0,4,0,1,0,0,0,0,0,0,0,1,0,0,0,2,2,1,0,2,-100.0791526701406,19.79514612572457,México,El Oro
15065,0,1,3,0,0,3,1,0,1,2,1,0,0,0,0,2,0,4,3,0,0,-98.73839259162783,19.65601950401961,México,Otumba
15067,0,0,2,0,0,0,0,0,0,0,0,0,1,1,1,1,0,2,2,0,0,-99.52993801878124,19.45024137486807,México,Otzolotepec
15068,0,0,1,0,0,0,0,0,0,0,0,0,0,0,0,2,1,1,1,1,0,-98.8096843336888,19.0217561264758,México,Ozumba
15070,2,5,23,1,0,14,0,2,2,12,3,1,13,1,3,11,16,30,34,9,7,-98.94669087574219,19.36107302221443,México,La Paz
15072,0,0,0,0,0,1,0,0,0,0,0,0,1,0,0,0,1,0,0,1,0,-99.56707433464777,19.13887781639701,México,Rayón
15073,0,0,0,0,0,1,0,0,1,1,1,1,3,0,4,2,3,5,3,1,2,-99.55128370451655,19.16887713741055,México,San Antonio la Isla
15074,1,1,6,0,2,1,0,0,0,2,3,0,1,1,2,9,2,11,5,1,1,-99.98252283526062,19.65322484284652,México,San Felipe del Progreso
15075,0,0,0,0,0,1,0,0,0,1,0,0,1,0,0,1,0,2,1,0,0,-98.83219488099041,19.7197710823127,México,San Martín de las Pirámides
15076,0,0,7,0,0,3,1,0,0,4,2,0,2,1,2,5,2,13,3,1,1,-99.54225233877901,19.26895423567929,México,San Mateo Atenco
15077,0,0,0,0,0,1,0,0,0,1,0,0,0,0,0,0,1,0,0,0,1,-100.0368717294291,18.98005481964821,México,San Simón de Guerrero
15078,0,0,0,0,0,0,0,0,0,0,1,0,0,0,0,0,0,1,0,0,0,-100.2998129105478,19.17968795036986,México,Santo Tomás
15079,0,0,1,0,0,1,1,0,0,1,1,0,0,0,1,1,0,1,0,0,0,-99.51387437689317,20.05180534566458,México,Soyaniquilpan de Juárez
15080,0,1,1,0,0,0,0,0,0,0,0,0,0,0,0,0,0,1,0,0,0,-99.98920337906497,18.73462101556811,México,Sultepec
15081,2,2,22,1,2,16,1,8,3,24,5,2,21,3,13,37,34,91,34,15,19,-98.98650793394567,19.70583640013606,México,Tecámac
15082,0,0,1,0,0,1,2,1,1,1,0,1,2,1,1,1,0,5,5,0,0,-100.2130913347702,18.87379724456924,México,Tejupilco
15083,0,0,1,0,1,1,0,0,0,1,0,0,0,0,1,1,1,1,3,0,1,-98.88377730137411,19.18893266680762,México,Temamatla
15084,0,0,2,0,0,0,0,0,0,2,1,0,1,0,2,2,0,4,1,0,0,-98.88106872090384,19.81912074165179,México,Temascalapa
15085,0,0,1,0,0,0,0,0,0,0,0,0,0,0,0,1,0,2,0,0,0,-100.0369993495173,19.92126474161997,México,Temascalcingo
15086,0,0,0,0,0,2,1,0,0,1,0,0,0,0,0,1,0,2,0,0,0,-99.99658430945156,19.08136146019972,México,Temascaltepec
15087,0,0,5,0,0,2,0,1,0,0,0,0,3,0,1,1,2,4,4,0,2,-99.60231819959706,19.48573042883721,México,Temoaya
15088,0,1,7,0,0,1,0,0,0,1,0,0,2,0,3,4,3,7,4,1,2,-99.56922025950325,18.96701985439147,México,Tenancingo
15089,0,0,0,0,0,0,0,0,0,0,0,0,0,0,0,0,0,0,1,0,0,-98.87015060879291,19.15163715150882,México,Tenango del Aire
15090,0,1,4,2,0,4,0,0,0,1,2,0,2,1,0,0,1,6,3,0,1,-99.63028617370362,19.08135020533869,México,Tenango del Valle
15091,1,2,6,1,0,2,1,0,0,3,1,0,2,1,1,4,5,8,1,3,2,-99.16818478584995,19.76220740027755,México,Teoloyucan
15092,0,0,2,0,0,2,0,0,1,1,0,1,2,0,1,2,1,6,4,0,1,-98.8706692058506,19.68631788845772,México,Teotihuacán
15093,0,0,1,0,0,1,0,0,0,0,0,0,0,0,0,1,0,0,1,0,0,-98.7657005505321,19.56941441584891,México,Tepetlaoxtoc
15094,0,0,0,0,0,0,0,0,0,0,0,0,1,0,1,1,0,1,0,0,0,-98.84128389551088,19.00994034679161,México,Tepetlixpa
15095,1,0,9,1,0,4,2,3,2,6,1,3,3,0,1,3,5,8,5,2,3,-99.30619367959554,19.72521312564246,México,Tepotzotlán
15096,0,0,1,0,0,1,0,0,0,2,0,0,0,1,0,0,0,1,1,0,0,-99.14958514463747,19.90464877733195,México,Tequixquiac
15099,0,4,26,0,0,10,2,3,3,13,4,3,16,2,14,23,18,34,18,7,11,-98.82769173695893,19.4716765547575,México,Texcoco
15100,0,1,3,0,0,2,0,0,0,3,0,0,2,0,2,4,2,5,7,1,1,-98.93141081770773,19.59691616972646,México,Tezoyuca
15101,0,1,3,0,0,1,0,0,0,3,1,0,1,0,1,2,3,2,0,2,1,-99.43216378272575,19.1623001953458,México,Tianguistenco
15102,0,0,1,0,0,1,0,0,0,1,0,0,1,0,1,1,0,1,0,0,0,-99.71804159000062,19.89634578167587,México,Timilpan
15103,0,0,4,0,0,0,1,0,1,3,0,0,3,0,5,2,2,11,2,1,1,-98.73196967813975,19.2089023282352,México,Tlalmanalco
15104,1,3,54,2,7,43,6,18,10,57,24,16,64,5,53,110,98,235,88,45,53,-99.17014635561821,19.54274532500151,México,Tlalnepantla de Baz
15105,0,0,0,0,0,0,0,0,0,1,0,0,1,0,0,1,0,1,0,0,0,-100.2570831711997,18.54448263502911,México,Tlatlaya
15106,1,8,64,3,3,48,10,8,5,65,21,8,61,4,42,136,43,247,66,16,27,-99.66699652029912,19.29626330860952,México,Toluca
15107,0,0,0,0,0,0,0,0,0,1,0,0,1,0,0,1,0,1,0,0,0,-99.63755943079369,18.78090369061922,México,Tonatico
15108,2,1,13,0,0,5,1,1,0,7,1,2,5,1,8,7,8,21,5,3,5,-99.11964883937493,19.67930656232748,México,Tultepec
15109,3,2,43,2,0,17,2,2,5,11,8,6,27,3,16,28,40,83,29,18,22,-99.14528842354804,19.6262095080126,México,Tultitlán
15110,0,1,2,0,0,0,0,0,0,1,0,1,3,0,0,2,1,5,0,1,0,-100.1219502612442,19.17776774990531,México,Valle de Bravo
15111,0,2,2,0,0,2,1,1,0,0,0,0,0,0,1,0,0,1,1,0,0,-100.137563782595,19.38724301368311,México,Villa de Allende
15112,0,0,3,0,0,2,0,0,0,1,0,0,1,0,0,1,1,2,2,0,1,-99.47839367571997,19.72106218954146,México,Villa del Carbón
15113,0,0,2,0,0,0,0,0,1,0,0,0,0,0,0,0,0,2,0,0,0,-99.68728990718544,18.97308723764971,México,Villa Guerrero
15114,0,0,3,1,1,0,0,0,0,0,1,0,0,0,0,0,0,5,1,0,0,-99.99213425188918,19.44275025969367,México,Villa Victoria
15115,0,2,6,0,0,2,0,1,0,1,1,0,1,0,3,4,6,7,2,1,5,-99.46759868085817,19.43695108177394,México,Xonacatlán
15117,0,0,1,0,0,0,0,0,0,0,1,0,0,0,0,0,0,1,0,0,0,-99.81281104694187,18.71582018123361,México,Zacualpan
15118,1,2,11,1,0,4,1,3,1,4,3,1,5,1,6,19,4,26,9,1,3,-99.79782220214587,19.21501977855003,México,Zinacantepec
15119,0,0,2,0,0,0,0,0,0,0,1,0,0,0,1,0,1,1,0,0,1,-99.55408934509927,18.8001173924921,México,Zumpahuacán
15120,3,2,17,1,1,5,3,3,3,8,3,3,7,1,5,9,11,34,9,3,8,-99.0718205547487,19.80910677282614,México,Zumpango
15121,0,1,36,1,1,25,7,6,7,39,16,10,38,4,26,31,46,109,36,25,21,-99.22522664371927,19.65453652380807,México,Cuautitlán Izcalli
15122,3,6,52,2,4,22,12,3,9,22,2,9,14,6,16,16,26,34,35,4,22,-98.9483169765855,19.27640649980079,México,Valle de Chalco Solidaridad
15124,0,0,3,0,0,1,2,0,0,0,0,1,1,1,1,1,1,2,1,1,0,-100.1456082414908,19.61712871749468,México,San José del Rincón
15125,0,0,0,0,0,0,0,0,0,1,0,1,2,0,0,2,1,3,0,0,1,-99.05835864028462,19.68182480832188,México,Tonanitla
16001,0,0,0,0,0,0,0,0,0,0,0,0,1,0,0,1,0,0,1,0,0,-101.3400023333028,19.46583081366894,Michoacán de Ocampo,Acuitzio
16003,2,0,3,0,0,2,0,0,1,2,1,0,1,0,0,8,3,11,1,1,2,-101.0217578751573,19.87353688451076,Michoacán de Ocampo,Álvaro Obregón
16004,0,0,2,1,0,0,0,0,0,0,1,0,1,0,0,0,0,4,0,0,0,-101.7277624342294,20.13890612313693,Michoacán de Ocampo,Angamacutiro
16006,0,0,4,0,1,4,1,1,0,1,0,0,2,0,1,3,0,15,3,0,0,-102.4233221978351,18.9381731057533,Michoacán de Ocampo,Apatzingán
16007,0,0,2,0,0,0,0,0,0,0,0,0,1,1,1,1,0,1,2,0,0,-100.3954263182924,19.66198182227694,Michoacán de Ocampo,Aporo
16008,0,0,2,0,0,0,0,0,0,0,0,0,0,0,0,0,0,2,0,0,0,-103.2358367144868,18.37423787871426,Michoacán de Ocampo,Aquila
16009,0,0,0,0,0,0,0,0,0,0,0,0,1,0,1,1,1,1,3,0,1,-101.7066721329105,19.15631230182791,Michoacán de Ocampo,Ario
16010,1,0,1,0,0,2,0,0,0,1,0,0,1,0,0,2,2,2,0,1,1,-102.2706818036985,18.36406995738228,Michoacán de Ocampo,Arteaga
16012,0,0,1,1,1,0,0,0,0,0,0,0,3,0,0,0,0,6,1,0,0,-102.5838682129743,19.20387568468256,Michoacán de Ocampo,Buenavista
16013,0,0,0,0,0,0,0,0,0,1,0,0,0,0,0,2,0,4,1,0,0,-101.0363142701941,18.96882775849098,Michoacán de Ocampo,Carácuaro
16015,0,0,0,0,0,0,0,1,0,0,1,0,0,0,0,0,0,2,0,0,0,-103.0859668325319,18.67965299801756,Michoacán de Ocampo,Coalcomán de Vázquez Pallares
16017,0,0,0,0,0,0,0,0,0,0,0,0,0,0,0,2,0,3,0,0,0,-100.2075883183769,19.95930781755137,Michoacán de Ocampo,Contepec
16019,0,0,1,0,0,1,0,1,0,1,0,1,4,0,3,7,1,9,0,0,1,-102.6999617416605,19.75908408984342,Michoacán de Ocampo,Cotija
16020,0,1,2,0,0,2,0,0,1,1,0,1,2,0,3,0,0,4,4,0,0,-101.1118237936418,19.98059263575819,Michoacán de Ocampo,Cuitzeo
16022,0,1,3,0,0,2,3,0,0,4,0,0,4,0,0,2,0,7,2,0,0,-101.0133079036503,19.66891409262821,Michoacán de Ocampo,Charo
16023,0,0,1,0,0,0,0,0,0,1,1,0,1,0,0,1,1,1,0,1,0,-102.4467064516979,20.04402637295581,Michoacán de Ocampo,Chavinda
16024,0,0,1,0,0,0,0,0,0,0,0,0,0,0,0,0,0,1,0,0,0,-101.989738881303,19.7346188430245,Michoacán de Ocampo,Cherán
16025,0,1,1,0,0,1,0,0,0,1,0,0,0,0,1,3,0,4,0,0,0,-102.1011675727483,19.81335262918548,Michoacán de Ocampo,Chilchota
16027,0,0,0,1,0,0,0,0,0,0,0,0,0,0,0,0,0,2,0,0,0,-101.3621913274689,19.89695030217842,Michoacán de Ocampo,Chucándiro
16028,0,0,0,0,0,0,0,0,0,0,0,0,0,0,0,0,0,1,0,0,0,-102.0780297008662,20.12889305896962,Michoacán de Ocampo,Churintzio
16030,0,1,1,0,0,0,0,0,0,0,1,0,0,0,0,0,0,2,0,0,0,-102.2434174928606,20.15555786750008,Michoacán de Ocampo,Ecuandureo
16032,0,0,2,0,0,1,0,0,0,2,0,0,1,0,0,0,1,3,0,1,0,-101.7252137934943,19.61978801340156,Michoacán de Ocampo,Erongarícuaro
16033,0,0,2,0,0,1,0,0,1,1,2,1,1,1,1,0,0,2,1,0,0,-102.007137331452,19.15881701064682,Michoacán de Ocampo,Gabriel Zamora
16034,0,0,4,0,0,1,0,1,0,4,4,0,3,3,2,2,0,8,6,0,0,-100.6778972103057,19.61260339080301,Michoacán de Ocampo,Hidalgo
16035,0,0,1,0,0,1,0,2,0,1,0,0,2,0,1,3,1,4,4,0,1,-101.9211608572145,18.84195915800951,Michoacán de Ocampo,La Huacana
16036,0,0,1,0,0,0,1,1,0,0,0,0,0,0,0,0,0,2,0,0,0,-101.2777667823359,19.99613035341781,Michoacán de Ocampo,Huandacareo
16037,0,0,1,0,0,1,0,0,0,1,0,1,0,1,0,0,0,2,0,0,0,-101.4964781262096,19.89195070408342,Michoacán de Ocampo,Huaniqueo
16038,0,0,1,0,0,1,0,0,0,2,0,1,1,0,0,1,0,3,2,0,0,-101.105063857509,18.65387090856889,Michoacán de Ocampo,Huetamo
16039,0,0,0,0,0,0,0,0,0,1,0,0,1,0,0,0,1,0,0,1,0,-101.4570615956924,19.52154211328005,Michoacán de Ocampo,Huiramba
16040,0,0,2,0,0,1,0,0,0,1,0,0,1,1,0,0,0,2,0,0,0,-100.942158061098,19.76602205711532,Michoacán de Ocampo,Indaparapeo
16041,0,0,0,0,0,0,0,0,0,0,1,0,0,0,0,0,0,1,2,0,0,-100.4679996430251,19.71680012979823,Michoacán de Ocampo,Irimbo
16043,0,0,1,0,0,0,0,1,0,0,1,0,2,1,3,2,0,3,4,0,0,-102.3160019467374,19.93494144399313,Michoacán de Ocampo,Jacona
16044,0,0,1,0,0,0,0,0,0,1,0,2,0,1,0,0,0,2,0,0,0,-101.7043921484409,19.92683113316572,Michoacán de Ocampo,Jiménez
16045,0,1,1,0,0,0,1,0,0,1,0,0,0,0,0,1,1,2,0,1,0,-102.7534090811384,19.97749780161178,Michoacán de Ocampo,Jiquilpan
16046,0,0,0,0,0,0,0,0,0,0,0,0,0,0,0,0,0,1,0,0,0,-100.4601793148303,19.29282170356935,Michoacán de Ocampo,Juárez
16047,0,0,1,0,0,0,0,0,0,0,0,0,0,0,0,0,0,1,0,0,0,-100.5186891569909,19.43333714546235,Michoacán de Ocampo,Jungapeo
16048,0,0,1,0,0,0,0,0,1,1,1,1,0,0,0,0,0,1,0,0,0,-101.411194938251,19.57799889719595,Michoacán de Ocampo,Lagunillas
16049,0,0,0,0,0,0,0,0,0,0,0,0,1,0,0,1,1,0,0,0,1,-101.1702181880502,19.34246827369597,Michoacán de Ocampo,Madero
16050,0,0,2,0,0,0,1,3,1,2,1,0,2,1,1,6,0,8,2,0,0,-100.4289524026782,19.88943860929592,Michoacán de Ocampo,Maravatío
16051,0,0,1,0,0,0,0,0,0,0,0,0,0,0,0,0,0,1,0,0,0,-102.9678338723518,20.0448234204286,Michoacán de Ocampo,Marcos Castellanos
16052,4,3,32,3,0,19,5,5,0,30,4,2,19,3,16,31,37,102,30,12,25,-102.375112981817,18.08853956623691,Michoacán de Ocampo,Lázaro Cárdenas
16053,4,8,37,3,1,28,9,16,4,38,15,9,28,4,32,99,30,181,29,15,15,-101.2791066358379,19.66659348212073,Michoacán de Ocampo,Morelia
16054,0,0,0,0,0,0,0,0,0,1,1,0,1,0,2,2,0,3,0,0,0,-101.4429955871745,19.98983113453999,Michoacán de Ocampo,Morelos
16055,0,0,1,1,0,1,1,0,0,2,0,1,1,0,0,1,0,7,4,0,0,-102.1238049346204,18.97109857148326,Michoacán de Ocampo,Múgica
16056,0,0,3,0,0,1,0,0,0,2,0,0,2,0,1,0,0,1,2,0,0,-101.8795511854394,19.64517681465372,Michoacán de Ocampo,Nahuatzen
16057,0,0,0,0,0,0,0,0,0,0,0,0,0,0,0,0,0,0,1,0,0,-101.2159329072065,19.09348841174767,Michoacán de Ocampo,Nocupétaro
16058,0,0,1,0,0,0,0,0,0,0,0,0,0,0,0,0,0,1,0,0,0,-102.1957283582444,19.40823659424577,Michoacán de Ocampo,Nuevo Parangaricutiro
16060,0,0,2,0,0,0,0,0,0,1,0,0,3,0,0,6,1,7,0,0,1,-101.9597533572875,20.2506763243334,Michoacán de Ocampo,Numarán
16061,0,0,0,0,0,0,0,0,0,0,0,0,0,0,0,0,0,0,1,0,0,-100.3327655201825,19.57717926031372,Michoacán de Ocampo,Ocampo
16062,0,0,0,0,0,1,1,0,0,1,0,0,0,0,0,0,0,1,0,0,0,-102.5257373176168,20.14515742701588,Michoacán de Ocampo,Pajacuarán
16065,0,0,1,0,0,1,0,0,0,1,0,0,0,0,0,0,0,3,1,0,0,-102.071051987138,19.6541265560822,Michoacán de Ocampo,Paracho
16066,1,0,4,0,0,1,0,0,1,1,1,1,2,0,1,3,1,11,2,0,1,-101.5990153939173,19.49449656226265,Michoacán de Ocampo,Pátzcuaro
16068,0,0,0,0,0,1,0,0,1,1,0,0,0,0,0,0,0,4,0,0,0,-102.4526097904241,19.49528911145464,Michoacán de Ocampo,Peribán
16069,2,1,17,0,0,7,0,2,1,11,4,2,12,4,6,18,7,30,10,3,4,-102.0723113219272,20.3055829086267,Michoacán de Ocampo,La Piedad
16071,0,1,3,0,0,1,1,0,0,1,0,1,1,0,0,1,0,4,2,0,0,-101.5280324230176,20.11571026080649,Michoacán de Ocampo,Puruándiro
16072,0,0,1,0,0,0,0,0,0,1,0,1,2,0,1,1,0,2,2,0,0,-100.8467716027051,19.72647698753465,Michoacán de Ocampo,Queréndaro
16073,0,0,1,0,1,1,0,0,0,0,0,0,0,0,0,0,0,1,0,0,0,-101.5386655521035,19.69517546653336,Michoacán de Ocampo,Quiroga
16075,0,0,4,2,1,5,0,1,1,4,4,0,1,0,2,0,0,10,7,0,0,-102.3953395743214,19.65284042020202,Michoacán de Ocampo,Los Reyes
16076,1,0,3,0,0,2,0,0,1,5,0,1,2,0,4,3,2,4,3,1,1,-102.7662973414527,20.05514051970513,Michoacán de Ocampo,Sahuayo
16078,0,0,0,0,0,1,0,0,0,1,0,0,1,0,0,1,0,0,3,0,0,-101.0388857395586,20.03925118773288,Michoacán de Ocampo,Santa Ana Maya
16079,0,0,1,0,0,0,0,0,0,1,0,0,0,1,0,0,0,1,0,0,0,-101.6880827941872,19.38121385849173,Michoacán de Ocampo,Salvador Escalante
16080,0,0,1,0,0,0,0,0,0,0,0,0,0,0,0,0,0,1,0,0,0,-100.3423317029819,19.74617683013584,Michoacán de Ocampo,Senguio
16081,0,1,0,0,0,1,0,0,0,0,0,0,0,0,0,1,0,1,0,0,0,-100.4068673571531,19.19120378179338,Michoacán de Ocampo,Susupuato
16082,0,1,5,0,0,1,1,0,0,2,1,0,1,0,0,0,0,11,1,0,0,-101.4520159208659,19.25483537859531,Michoacán de Ocampo,Tacámbaro
16083,0,1,5,0,0,0,2,0,0,2,0,0,1,1,1,0,0,5,0,0,0,-102.347014312666,19.33114385233563,Michoacán de Ocampo,Tancítaro
16084,0,0,0,0,0,2,0,0,0,1,1,0,0,0,0,1,1,2,1,0,1,-102.4536454480261,19.89024685663826,Michoacán de Ocampo,Tangamandapio
16085,0,0,1,0,0,1,0,0,0,1,0,0,0,0,0,0,0,1,0,0,0,-102.248682938698,19.87259905392582,Michoacán de Ocampo,Tangancícuaro
16086,0,1,2,1,0,0,1,0,1,0,0,0,1,0,0,2,0,4,2,0,0,-102.3417834507802,20.25924501762553,Michoacán de Ocampo,Tanhuato
16087,0,0,2,0,0,0,0,0,0,0,0,1,2,0,0,0,0,3,2,0,0,-101.8951056074682,19.32930956663932,Michoacán de Ocampo,Taretan
16088,0,0,1,1,0,1,1,2,0,1,0,0,2,0,1,5,0,4,5,0,0,-101.1575037811266,19.8164856539643,Michoacán de Ocampo,Tarímbaro
16089,0,0,0,0,0,0,0,0,0,0,0,0,0,0,0,0,0,3,0,0,0,-102.8583290676387,19.06823451795377,Michoacán de Ocampo,Tepalcatepec
16090,0,0,1,0,1,1,1,0,0,1,1,0,2,0,0,1,0,4,0,0,0,-101.8506528498839,19.51388791108618,Michoacán de Ocampo,Tingambato
16091,0,0,0,2,0,0,0,0,0,0,0,0,2,0,0,0,0,3,0,0,0,-102.5004183211579,19.78673288656436,Michoacán de Ocampo,Tingüindín
16093,0,0,1,0,0,0,0,0,0,0,0,0,0,0,0,1,0,0,1,0,0,-100.2065825820631,19.77988676628587,Michoacán de Ocampo,Tlalpujahua
16094,0,0,2,0,0,0,0,0,0,1,0,1,2,0,0,0,0,2,0,0,0,-102.0608772591051,20.00591861459286,Michoacán de Ocampo,Tlazazalca
16096,0,0,0,0,0,0,0,0,0,0,1,0,0,0,0,0,0,1,0,0,0,-102.5100320585054,18.55025500432836,Michoacán de Ocampo,Tumbiscatío
16097,0,0,0,0,0,0,1,0,0,1,0,0,0,0,0,0,0,1,0,0,0,-101.4221164577112,18.93207602742891,Michoacán de Ocampo,Turicato
16098,0,0,0,0,0,0,0,0,0,0,0,0,0,0,0,0,0,1,0,0,0,-100.4878777862801,19.56833186549485,Michoacán de Ocampo,Tuxpan
16099,0,0,0,0,0,1,1,0,0,2,0,0,1,0,0,2,0,3,2,0,0,-100.6179473712645,19.22180179168431,Michoacán de Ocampo,Tuzantla
16100,1,1,3,0,0,0,0,0,0,1,1,0,2,0,1,5,6,2,1,3,3,-101.5495268272803,19.60995024916736,Michoacán de Ocampo,Tzintzuntzan
16101,0,0,1,1,0,0,1,0,0,0,1,0,0,0,1,0,0,1,1,0,0,-100.9140119602009,19.43162048134085,Michoacán de Ocampo,Tzitzio
16102,0,6,30,1,0,11,6,1,2,20,8,10,17,2,12,9,9,74,13,5,4,-102.1056450581017,19.44363708749957,Michoacán de Ocampo,Uruapan
16103,1,0,1,0,0,4,0,0,0,2,0,0,1,0,0,6,6,2,0,2,4,-102.6662001552074,20.14306191747849,Michoacán de Ocampo,Venustiano Carranza
16104,0,0,0,0,0,0,0,0,0,0,0,0,0,0,0,0,0,1,0,0,0,-102.5864010474393,19.99376163924446,Michoacán de Ocampo,Villamar
16105,0,0,1,0,0,1,0,0,0,1,0,0,0,1,1,1,0,2,0,0,0,-102.4698262000749,20.26622194434152,Michoacán de Ocampo,Vista Hermosa
16106,0,0,0,1,0,2,0,0,1,2,1,1,1,1,1,2,0,6,3,0,0,-102.2195139184713,20.29926779557024,Michoacán de Ocampo,Yurécuaro
16107,0,0,5,0,0,5,0,1,0,4,1,0,2,0,1,0,0,11,2,0,0,-101.8278667901303,19.82413731642862,Michoacán de Ocampo,Zacapu
16108,0,0,8,1,0,1,0,3,3,3,1,2,7,2,6,13,1,13,14,0,1,-102.2640703846289,20.03298177470905,Michoacán de Ocampo,Zamora
16109,0,0,0,0,0,0,0,1,0,1,0,1,3,1,0,3,1,3,0,0,1,-102.0115465177269,20.18248421869008,Michoacán de Ocampo,Zináparo
16110,0,1,2,0,0,2,0,1,1,1,0,1,1,1,2,0,0,5,2,0,0,-100.7692859894181,19.87071447053139,Michoacán de Ocampo,Zinapécuaro
16112,0,0,15,0,0,5,6,2,2,3,1,0,1,3,6,13,1,28,8,0,1,-100.3379488558114,19.43822530731351,Michoacán de Ocampo,Zitácuaro
16113,0,0,1,0,0,0,1,2,0,1,0,1,1,0,0,1,0,1,3,0,0,-101.56693237289,20.2569172572843,Michoacán de Ocampo,José Sixto Verduzco
17001,0,0,0,0,0,0,0,0,1,1,0,0,1,0,0,0,0,2,0,0,0,-99.38668496705448,18.59000049180288,Morelos,Amacuzac
17002,2,2,5,0,0,1,1,0,0,3,0,0,2,0,0,5,5,2,0,2,3,-98.89450110516397,18.93504981684933,Morelos,Atlatlahucan
17003,0,0,4,0,0,2,0,2,0,0,0,1,0,1,0,1,0,4,0,0,0,-98.7521140116858,18.52523896249036,Morelos,Axochiapan
17004,0,0,3,0,0,1,1,0,0,0,0,0,4,0,0,6,3,5,0,1,2,-98.97897016526443,18.71621793888146,Morelos,Ayala
17005,0,0,0,0,0,0,0,0,0,1,0,0,0,0,0,0,1,3,0,0,1,-99.44577706348208,18.73183007754606,Morelos,Coatlán del Río
17006,0,2,19,0,2,9,2,2,1,17,1,2,12,2,5,17,8,26,10,4,4,-98.96180449003661,18.82705976166533,Morelos,Cuautla
17007,3,2,24,0,0,19,6,9,2,26,10,2,16,3,18,36,36,124,16,13,23,-99.26302765012574,18.93887812033403,Morelos,Cuernavaca
17008,0,1,2,1,0,0,0,2,0,3,0,1,1,0,1,1,4,15,1,1,3,-99.1808977808319,18.81372618313946,Morelos,Emiliano Zapata
17009,0,1,3,0,0,3,1,1,0,2,0,0,0,0,0,3,1,8,0,0,1,-99.23662671595214,19.05759275982709,Morelos,Huitzilac
17011,1,3,16,1,0,9,0,5,2,14,2,3,3,6,4,6,6,38,5,2,4,-99.16645096605194,18.88515842781478,Morelos,Jiutepec
17012,1,1,1,0,0,1,0,0,3,3,0,0,5,0,1,1,1,10,3,1,0,-99.22254295898826,18.58455462892217,Morelos,Jojutla
17014,0,0,1,0,0,0,1,0,0,1,0,0,1,0,0,1,0,4,0,0,0,-99.36541659857934,18.68591542113041,Morelos,Mazatepec
17015,0,0,2,0,1,1,0,0,0,0,0,0,0,0,1,1,1,2,0,0,1,-99.3551781385421,18.8029573524207,Morelos,Miacatlán
17016,0,0,2,0,0,2,1,0,0,1,0,0,1,0,1,4,2,3,0,1,1,-98.78096085054028,18.88157206033925,Morelos,Ocuituco
17017,1,1,4,0,1,3,2,1,0,3,0,1,2,0,0,1,1,8,3,0,1,-99.28567480656972,18.57779342534031,Morelos,Puente de Ixtla
17018,1,0,8,1,1,5,0,3,0,6,3,0,6,2,6,15,9,16,5,4,5,-99.27224257025175,18.84253095716047,Morelos,Temixco
17019,0,0,4,0,0,2,0,1,0,2,0,1,0,1,2,2,1,4,0,0,1,-98.89425244921371,18.57477527635767,Morelos,Tepalcingo
17020,0,0,1,0,0,0,0,0,0,1,0,0,0,0,0,2,1,6,0,1,0,-99.10518860647242,18.981295843092,Morelos,Tepoztlán
17021,0,0,1,0,0,1,0,0,0,1,0,0,0,0,1,2,1,3,0,0,1,-99.4123940550949,18.69273564187414,Morelos,Tetecala
17022,0,0,1,0,0,0,0,0,0,1,0,1,0,0,0,1,0,1,0,0,0,-98.70820353052132,18.90553418856522,Morelos,Tetela del Volcán
17023,0,0,0,0,0,0,0,0,0,0,0,0,0,0,0,0,0,1,0,0,0,-98.99023985961367,19.03870565745402,Morelos,Tlalnepantla
17024,0,0,1,1,0,1,0,2,0,0,0,0,2,0,0,0,0,7,2,0,0,-99.10824605049721,18.70495251152445,Morelos,Tlaltizapán de Zapata
17025,1,0,0,0,0,1,0,0,0,1,0,0,1,0,1,0,2,4,1,1,1,-99.07472909137006,18.49913238047228,Morelos,Tlaquiltenango
17026,0,0,2,1,0,1,0,0,0,0,1,0,2,0,0,2,0,4,0,0,0,-98.97503300966267,18.95402752609885,Morelos,Tlayacapan
17027,0,0,1,0,0,0,0,0,0,0,0,0,0,0,0,1,0,1,0,0,0,-98.91803210026914,19.00043551758564,Morelos,Totolapan
17028,1,3,6,0,0,5,1,0,2,4,1,1,5,1,4,2,2,14,3,1,1,-99.23527613530337,18.76189782291898,Morelos,Xochitepec
17029,1,1,4,0,0,3,0,0,0,2,0,0,4,0,4,2,4,12,0,1,3,-99.05235336075619,18.87223534158942,Morelos,Yautepec
17030,0,0,4,0,0,3,0,0,1,2,1,2,1,2,0,4,1,7,1,1,0,-98.85681234924057,18.85269755243009,Morelos,Yecapixtla
17031,0,0,4,1,0,2,1,1,0,2,0,0,1,0,1,3,0,12,2,0,0,-99.20271410438926,18.65565406717352,Morelos,Zacatepec
17032,0,0,1,0,0,0,1,0,0,0,0,0,0,0,0,1,0,1,0,0,0,-98.75379817521517,18.80687621179083,Morelos,Zacualpan de Amilpas
17033,0,0,0,0,0,0,0,0,0,0,0,0,0,0,0,1,0,1,0,0,0,-98.79049403461508,18.75924141517654,Morelos,Temoac
17056,0,0,0,0,0,0,0,0,0,0,0,0,0,0,1,1,1,0,0,0,1,,,,
18001,2,0,6,0,0,3,2,1,2,5,2,4,2,2,2,2,3,6,0,1,2,-105.2589573065815,22.46483772523984,Nayarit,Acaponeta
18004,0,1,4,0,0,2,0,0,0,3,1,0,1,2,1,0,0,6,1,0,0,-105.0567476103081,21.13137122148899,Nayarit,Compostela
18006,0,0,4,0,0,0,0,1,0,1,1,0,0,0,0,1,2,6,0,0,2,-104.3069559237762,21.03342817897104,Nayarit,Ixtlán del Río
18007,0,0,1,0,0,0,0,0,0,1,0,1,0,0,0,0,1,0,0,0,1,-104.3993207641032,21.18407342642289,Nayarit,Jala
18008,0,0,1,0,0,3,2,0,0,3,1,0,1,1,4,3,1,9,0,1,0,-104.961761430197,21.39086208217097,Nayarit,Xalisco
18010,0,2,3,0,0,2,1,0,0,2,0,1,0,1,0,1,0,5,0,0,0,-105.2145406466874,22.11770867712601,Nayarit,Rosamorada
18011,0,0,1,0,0,0,0,0,1,0,0,0,1,0,1,0,0,1,0,0,0,-104.9625618436768,21.99110490831853,Nayarit,Ruíz
18012,0,0,1,2,0,1,1,0,1,1,0,1,2,0,1,0,0,4,1,0,0,-105.4870770129573,21.56747147615826,Nayarit,San Blas
18013,0,0,2,0,0,1,1,0,0,1,0,0,0,0,1,0,0,2,0,0,0,-104.7487972259366,21.16107453136952,Nayarit,San Pedro Lagunillas
18014,0,0,0,0,0,0,0,0,0,0,0,0,0,0,0,0,0,2,0,0,0,-104.5903330341148,21.35648516685346,Nayarit,Santa María del Oro
18015,0,1,8,0,2,8,2,2,4,10,3,2,8,2,4,1,3,26,6,1,2,-105.322180005003,21.85403002591232,Nayarit,Santiago Ixcuintla
18016,0,0,3,0,1,1,1,0,0,2,1,1,0,0,2,0,1,6,0,1,0,-105.5194529174609,22.33701824903585,Nayarit,Tecuala
18017,1,0,18,1,1,10,8,10,3,26,12,7,19,3,10,19,22,103,16,13,9,-104.840486465777,21.62158998773532,Nayarit,Tepic
18018,1,0,4,0,0,3,3,0,1,3,2,0,3,0,2,0,1,3,3,0,1,-105.3744233523239,21.96155849296608,Nayarit,Tuxpan
18019,0,0,0,0,0,0,0,0,0,0,0,0,0,0,0,0,0,0,1,0,0,-104.1508924738094,21.54281556296202,Nayarit,La Yesca
18020,1,0,12,0,0,5,2,5,1,9,6,4,9,2,4,9,5,33,13,5,0,-105.2710950431,20.84635494938147,Nayarit,Bahía de Banderas
19001,0,0,0,0,0,0,0,0,0,0,0,0,1,0,0,0,0,0,1,0,0,-100.4059424137704,25.9405434104054,Nuevo León,Abasolo
19002,0,0,1,0,0,1,0,0,0,1,1,0,0,0,1,1,0,2,0,0,0,-99.70308277916091,26.29871206528114,Nuevo León,Agualeguas
19003,0,0,0,0,0,0,0,1,0,0,0,0,0,0,0,0,0,1,0,0,0,-99.27348015025764,26.09150605752163,Nuevo León,Los Aldamas
19004,0,0,1,0,0,4,0,0,0,3,0,0,4,0,1,0,0,4,6,0,0,-100.0295183414374,25.30143411659507,Nuevo León,Allende
19005,0,0,3,0,0,0,0,0,0,2,0,1,0,0,1,0,0,5,1,0,0,-100.0253546030977,27.34215396504709,Nuevo León,Anáhuac
19006,0,1,56,5,3,54,6,24,14,56,16,12,50,5,46,82,13,247,219,3,10,-100.1873310555888,25.79227577535081,Nuevo León,Apodaca
19007,0,0,1,0,0,0,1,0,0,2,0,0,0,0,0,2,0,2,0,0,0,-99.88650892804873,24.22511770077661,Nuevo León,Aramberri
19008,0,0,1,0,0,0,0,0,0,0,0,0,0,0,0,0,0,1,0,0,0,-100.5617924899031,26.57171110817409,Nuevo León,Bustamante
19009,0,0,6,0,0,4,0,6,0,7,1,4,8,2,4,9,1,15,21,0,1,-99.91418545937532,25.52459054279873,Nuevo León,Cadereyta Jiménez
19010,0,1,5,0,1,3,1,1,1,5,0,1,3,1,6,3,2,14,14,1,1,-100.3568845533125,25.90077113898538,Nuevo León,El Carmen
19011,0,0,3,0,0,1,0,0,0,1,0,0,1,0,1,0,0,2,4,0,0,-99.70537345629158,26.07231788681086,Nuevo León,Cerralvo
19012,0,0,0,1,0,1,0,2,2,2,1,0,1,0,2,3,0,5,16,0,0,-100.1854355164996,25.9774584582513,Nuevo León,Ciénega de Flores
19013,0,0,1,0,0,1,1,0,0,3,0,1,3,0,1,0,0,4,3,0,0,-98.97240917477818,25.48015877415018,Nuevo León,China
19014,0,0,1,0,0,1,0,1,0,1,1,1,0,0,0,0,0,1,4,0,0,-100.3062664850997,23.86010837969443,Nuevo León,Doctor Arroyo
19015,0,0,1,0,0,1,0,0,0,0,0,1,0,0,0,0,0,0,1,0,0,-99.03087340995154,25.96409108507066,Nuevo León,Doctor Coss
19016,0,0,2,0,0,0,0,1,0,0,0,0,1,0,0,0,0,1,1,0,0,-99.80497995874384,25.84925200836627,Nuevo León,Doctor González
19017,0,1,0,0,0,1,0,1,0,1,1,0,1,0,0,0,0,4,0,0,0,-100.3922872477274,24.76050899863279,Nuevo León,Galeana
19018,0,1,7,0,2,18,0,11,6,21,2,0,27,1,15,32,6,73,69,1,5,-100.6597769362778,25.8090105654168,Nuevo León,García
19019,1,0,3,2,0,12,2,11,2,18,5,5,9,2,10,76,43,158,49,11,32,-100.374757698807,25.64459748340326,Nuevo León,San Pedro Garza García
19020,0,0,0,0,0,0,0,0,0,1,0,0,1,0,0,0,0,1,1,0,0,-98.84841806305292,25.80331479128698,Nuevo León,General Bravo
19021,1,1,4,4,0,26,3,13,5,45,6,6,32,2,22,30,11,91,102,4,7,-100.3555750164147,25.82186666728141,Nuevo León,General Escobedo
19022,0,0,0,0,0,1,0,0,0,4,0,0,3,0,1,2,0,2,6,0,0,-99.41301660437775,25.27587397009944,Nuevo León,General Terán
19024,0,0,0,0,0,0,0,0,0,0,0,0,0,0,0,0,0,1,0,0,0,-99.74017351596382,23.90102904310753,Nuevo León,General Zaragoza
19025,0,0,3,1,0,1,1,2,0,0,0,0,3,0,4,1,0,9,10,0,0,-100.1348197166008,25.91139219002923,Nuevo León,General Zuazua
19026,0,1,28,7,0,89,7,50,6,121,28,24,102,10,89,97,25,309,458,12,13,-100.2057942069384,25.67265768981193,Nuevo León,Guadalupe
19027,0,0,0,0,0,0,0,0,0,0,0,1,0,0,0,0,0,2,0,0,0,-99.41423982955564,25.91607901213252,Nuevo León,Los Herreras
19029,0,0,0,0,0,0,0,0,0,1,0,1,0,0,0,0,0,1,0,0,0,-99.67809605824115,24.883790865945,Nuevo León,Hualahuises
19031,0,2,14,2,0,21,1,21,4,30,4,2,30,4,35,21,5,104,128,1,4,-100.1214798532526,25.61409014373838,Nuevo León,Juárez
19032,0,0,0,0,0,1,0,0,0,1,0,1,0,0,1,0,0,0,5,0,0,-100.4182159281262,27.0508414102191,Nuevo León,Lampazos de Naranjo
19033,0,0,0,2,0,3,1,3,1,5,1,3,4,0,1,13,0,12,18,0,0,-99.5292195277208,24.85177059086552,Nuevo León,Linares
19034,0,0,0,0,0,0,0,0,0,0,0,0,0,0,0,0,0,0,1,0,0,-99.96461834699858,25.87451799933844,Nuevo León,Marín
19035,0,0,1,0,0,0,0,0,2,1,0,0,1,0,2,0,0,2,2,0,0,-99.49351595527946,26.04893061664024,Nuevo León,Melchor Ocampo
19036,0,0,0,0,0,0,0,0,0,0,0,0,0,0,0,0,0,0,1,0,0,-100.1604079693604,23.41791655487024,Nuevo León,Mier y Noriega
19037,0,0,0,0,0,1,0,1,0,2,0,0,1,0,0,1,0,0,3,0,0,-100.7862766107308,26.28558355827863,Nuevo León,Mina
19038,0,0,2,0,0,4,1,3,0,5,1,4,3,0,2,9,0,27,10,0,0,-99.80838054289934,25.12630542233944,Nuevo León,Montemorelos
19039,2,11,79,14,4,152,25,75,40,239,47,39,176,23,168,280,52,770,723,17,35,-100.310951778261,25.6446403471926,Nuevo León,Monterrey
19041,0,0,15,2,0,8,0,3,2,10,0,2,4,2,3,7,1,34,21,1,0,-99.97713473922946,25.73676866130451,Nuevo León,Pesquería
19042,0,0,0,0,0,0,0,0,0,0,0,0,0,0,0,0,0,1,0,0,0,-99.58766699443531,25.65331004209153,Nuevo León,Los Ramones
19043,0,0,0,0,0,0,0,0,0,0,0,0,0,0,0,1,0,0,1,0,0,-100.1277325984544,25.06582344116784,Nuevo León,Rayones
19044,0,0,2,0,0,0,0,2,0,2,0,2,1,1,2,1,0,8,11,0,0,-100.149288249992,26.57510231237204,Nuevo León,Sabinas Hidalgo
19045,0,0,1,0,0,0,0,0,0,4,0,0,3,0,3,5,2,13,9,1,1,-100.2703853265715,26.16105222568717,Nuevo León,Salinas Victoria
19046,1,2,22,2,2,36,5,11,6,51,11,11,36,7,37,62,9,163,157,2,7,-100.2706926287145,25.73607632401878,Nuevo León,San Nicolás de los Garza
19047,0,0,0,0,0,0,0,0,0,0,0,1,1,0,1,0,0,1,2,0,0,-100.4531901165794,25.99940226256829,Nuevo León,Hidalgo
19048,0,0,12,1,1,16,2,10,5,22,4,5,15,3,14,27,4,72,85,2,2,-100.4838633727177,25.57461030840453,Nuevo León,Santa Catarina
19049,0,0,1,1,0,2,0,5,0,7,1,0,0,0,1,12,0,19,12,0,0,-100.2373228700392,25.38489715944522,Nuevo León,Santiago
19050,0,0,0,0,0,0,0,0,0,0,0,0,0,0,0,0,0,1,0,0,0,-99.8847627105167,26.64810601174451,Nuevo León,Vallecillo
19051,0,0,0,0,0,1,0,0,0,0,1,0,0,0,0,0,0,2,0,0,0,-100.348069510629,26.46970461451242,Nuevo León,Villaldama
20002,0,0,1,0,0,0,0,0,1,0,0,0,0,1,0,0,0,3,0,0,0,-96.53956535510977,18.45215291271795,Oaxaca,Acatlán de Pérez Figueroa
20006,0,2,2,0,2,3,0,0,0,3,0,0,1,1,0,2,3,4,0,2,1,-97.16778538106337,17.44801898741398,Oaxaca,Asunción Nochixtlán
20007,0,0,0,0,1,0,1,0,0,0,0,0,0,0,0,0,0,1,0,0,0,-96.72575714886636,16.76289013764386,Oaxaca,Asunción Ocotlán
20010,0,0,0,0,0,1,0,0,0,1,0,0,0,0,0,0,0,2,0,0,0,-95.04303654281664,16.78827690696367,Oaxaca,El Barrio de la Soledad
20013,0,0,0,0,0,1,0,0,0,1,0,0,0,0,0,0,1,0,0,0,1,-96.76637066245397,16.89378422146905,Oaxaca,Ciénega de Zimatlán
20014,0,0,1,0,0,0,1,0,0,1,0,0,0,0,1,0,0,1,0,0,0,-95.08933484482242,16.62338817360255,Oaxaca,Ciudad Ixtepec
20021,0,0,1,0,0,0,1,1,0,0,0,0,0,0,0,0,0,2,0,0,0,-96.66187941321563,18.57987177552447,Oaxaca,Cosolapa
20023,0,0,0,1,0,1,0,1,0,0,1,0,0,0,1,0,0,8,0,0,0,-96.80142690284173,17.00696101426263,Oaxaca,Cuilápam de Guerrero
20024,0,0,0,0,0,0,0,0,0,0,0,0,0,0,0,0,0,1,0,0,0,-96.85730830097638,17.96612996021141,Oaxaca,Cuyamecalco Villa de Zaragoza
20026,0,0,1,0,1,0,1,0,0,2,0,1,0,0,0,1,1,1,0,1,0,-97.56232793687415,16.98683329976507,Oaxaca,Chalcatongo de Hidalgo
20029,0,0,1,0,1,0,0,0,0,0,0,0,0,0,0,0,0,1,0,0,0,-96.86927344894423,18.19464714984515,Oaxaca,Eloxochitlán de Flores Magón
20031,0,0,0,0,1,0,1,0,0,0,0,0,0,1,0,0,0,1,0,0,0,-96.02215886813258,17.03726413496811,Oaxaca,Tamazulápam del Espíritu Santo
20033,0,0,0,0,0,0,0,0,0,0,0,0,0,0,0,1,1,0,0,0,1,-96.80207909094865,17.17716476638761,Oaxaca,Guadalupe Etla
20037,0,0,1,0,0,0,0,0,0,0,0,0,0,0,0,0,1,0,0,0,1,-98.00992363372728,16.92233099782853,Oaxaca,Mesones Hidalgo
20039,1,0,3,0,0,2,3,0,1,3,0,2,4,0,1,5,1,12,0,1,0,-97.79984949601482,17.85514719122001,Oaxaca,Heroica Ciudad de Huajuapan de León
20043,1,1,4,0,3,2,0,0,0,2,0,1,0,0,1,3,2,7,2,0,2,-94.93109275287219,16.38160316334183,Oaxaca,Heroica Ciudad de Juchitán de Zaragoza
20044,0,1,2,0,0,1,0,0,0,1,1,1,0,0,0,1,1,2,0,0,1,-95.89104371819815,18.00083221384862,Oaxaca,Loma Bonita
20045,0,0,2,0,0,1,1,1,0,1,0,0,2,0,0,3,6,5,0,2,4,-96.81523584195112,17.24715315431305,Oaxaca,Magdalena Apasco
20057,0,0,0,0,0,0,0,0,0,0,0,0,1,0,1,0,0,1,0,0,0,-94.99096905635355,17.15560367405912,Oaxaca,Matías Romero Avendaño
20067,1,3,10,3,4,9,1,6,9,8,6,0,7,2,1,23,13,105,6,11,2,-96.7241200733606,17.10210530528645,Oaxaca,Oaxaca de Juárez
20068,0,0,0,0,0,1,0,0,0,0,0,0,0,0,0,0,0,2,1,0,0,-96.70339761864531,16.76179401154669,Oaxaca,Ocotlán de Morelos
20070,0,0,1,0,0,0,0,0,0,0,0,0,0,0,0,0,0,0,1,0,0,-97.96606981054005,16.40368016482445,Oaxaca,Pinotepa de Don Luis
20073,0,0,1,0,1,1,0,0,1,1,1,1,1,1,0,0,0,2,0,0,0,-97.89361467465802,16.99831354647439,Oaxaca,Putla Villa de Guerrero
20077,0,0,0,0,0,0,0,0,0,0,0,0,0,0,0,0,0,2,0,0,0,-96.8190674824186,17.20994184872819,Oaxaca,Reyes Etla
20078,0,0,0,0,0,0,0,0,0,0,0,0,0,0,0,0,0,1,0,0,0,-96.63615081339299,17.00241096012769,Oaxaca,Rojas de Cuauhtémoc
20079,0,0,2,0,0,1,0,0,0,1,0,0,2,0,0,0,0,4,1,0,0,-95.21957567083227,16.19338941738053,Oaxaca,Salina Cruz
20083,0,0,0,0,0,0,0,0,0,0,0,0,1,0,0,1,0,3,0,0,0,-96.68559333196978,16.9919713680715,Oaxaca,San Agustín de las Juntas
20084,0,0,0,0,0,0,0,0,0,0,0,0,0,0,0,0,0,0,1,0,0,-96.71826070284722,17.20126067448414,Oaxaca,San Agustín Etla
20085,0,0,1,0,1,0,0,0,0,0,0,0,0,0,0,0,0,0,1,0,0,-96.62081917911003,15.97617651126618,Oaxaca,San Agustín Loxicha
20087,0,0,0,0,0,0,1,0,0,0,1,0,0,0,0,0,0,2,0,0,0,-96.67946036758948,17.08069582620727,Oaxaca,San Agustín Yatareni
20091,0,0,1,0,0,1,0,0,0,1,0,0,0,1,0,1,0,2,0,0,0,-96.66729251093187,17.12746228356674,Oaxaca,San Andrés Huayápam
20092,0,0,1,0,0,0,0,0,0,1,0,1,0,1,0,0,0,1,0,0,0,-96.86491557686998,17.0587764041895,Oaxaca,San Andrés Ixtlahuaca
20107,0,0,0,1,0,0,1,2,2,2,0,0,0,1,0,2,4,9,1,2,2,-96.69181849168946,17.02411221644406,Oaxaca,San Antonio de la Cal
20115,0,1,3,0,0,1,0,0,1,2,0,1,2,1,0,3,2,4,1,2,0,-96.69561506983175,16.94114231463444,Oaxaca,San Bartolo Coyotepec
20117,0,0,1,0,1,1,0,0,0,0,0,0,0,0,1,0,0,1,0,0,0,-96.754815916568,15.94384598176165,Oaxaca,San Bartolomé Loxicha
20124,0,0,0,0,0,0,0,0,0,0,0,0,0,0,0,0,0,1,0,0,0,-95.14617615359948,16.35789376304666,Oaxaca,San Blas Atempa
20135,0,1,1,0,0,0,0,0,0,0,0,0,0,0,0,0,0,1,0,0,0,-96.88523480140088,17.0928978768963,Oaxaca,San Felipe Tejalápam
20143,0,0,0,0,0,0,0,0,0,0,0,0,0,0,0,0,0,0,1,0,0,-94.51307622354292,16.3526919726754,Oaxaca,San Francisco Ixhuatán
20150,0,0,2,0,0,1,0,0,0,1,0,0,0,0,0,1,0,3,0,0,0,-96.92812306296601,17.37211155210505,Oaxaca,San Francisco Telixtlahuaca
20157,0,1,1,0,0,1,0,0,0,2,0,0,2,0,0,2,1,7,0,0,1,-96.75743125171178,17.09536839292157,Oaxaca,San Jacinto Amilpas
20166,0,0,2,0,0,2,0,0,0,1,1,1,1,0,0,1,1,1,0,0,1,-96.12365066050245,17.9146821920501,Oaxaca,San José Chiltepec
20174,0,0,0,0,0,0,0,1,0,0,0,0,0,0,0,0,1,1,2,1,0,-96.71620336273656,16.98731871991768,Oaxaca,Ánimas Trujano
20178,0,0,0,0,0,0,0,0,0,0,0,0,0,0,0,0,0,2,0,0,0,-96.75915453240907,17.23798873013152,Oaxaca,San Juan Bautista Guelache
20184,0,0,9,0,1,6,1,3,0,4,2,1,5,0,0,2,1,15,5,1,0,-96.09253795208944,18.0285588880462,Oaxaca,San Juan Bautista Tuxtepec
20193,0,0,0,0,0,1,1,0,0,1,0,0,0,0,0,0,0,1,0,0,0,-96.77924723438394,17.32944480332743,Oaxaca,San Juan del Estado
20197,0,0,0,0,1,0,0,0,1,1,0,1,1,0,0,0,0,0,1,0,0,-96.54152522504423,16.95390696785974,Oaxaca,San Juan Guelavía
20227,0,0,0,0,0,0,0,0,0,0,0,0,0,0,0,0,0,4,0,0,0,-96.80356204120069,17.1290440266094,Oaxaca,San Lorenzo Cacaotepec
20232,0,0,0,0,1,0,0,1,0,0,0,0,0,0,0,0,0,1,0,0,0,-96.36252103486515,18.03423591810555,Oaxaca,San Lucas Ojitlán
20254,0,0,0,0,0,0,0,0,0,0,0,0,0,0,0,0,1,0,0,1,0,-96.52522696211656,16.12131112554671,Oaxaca,San Mateo Río Hondo
20268,0,0,0,0,0,0,0,1,0,0,1,0,1,0,0,0,0,1,0,0,0,-96.73660582551496,16.59619052476006,Oaxaca,San Miguel Ejutla
20277,0,0,1,0,0,1,0,0,0,0,0,1,0,0,0,0,0,3,0,0,0,-97.05817960587304,16.51321122067694,Oaxaca,Villa Sola de Vega
20278,0,0,0,0,0,0,0,0,0,0,0,0,0,0,0,1,1,0,0,0,1,-96.43906765791745,18.25251509496911,Oaxaca,San Miguel Soyaltepec
20289,0,0,0,0,0,0,0,0,0,0,1,0,1,0,0,0,1,0,0,0,1,-96.74465599734314,16.43095608714998,Oaxaca,San Nicolás
20292,0,0,0,0,0,0,0,1,0,0,0,1,1,1,0,0,0,1,0,0,0,-96.8902306577397,16.98204804825458,Oaxaca,San Pablo Cuatro Venados
20293,0,0,0,0,0,0,0,0,0,0,1,0,0,0,2,0,0,5,0,0,0,-96.73374565324814,17.16366075718724,Oaxaca,San Pablo Etla
20294,0,0,0,0,0,0,0,0,0,0,0,0,0,0,0,1,1,0,0,0,1,-96.87359612787459,17.30974902053935,Oaxaca,San Pablo Huitzo
20308,0,0,1,0,0,0,0,0,0,0,0,0,0,0,0,0,0,1,0,0,0,-95.14752247191005,16.24285950510901,Oaxaca,San Pedro Huilotepec
20310,0,0,2,0,0,1,0,0,0,0,2,0,1,0,0,1,2,4,0,1,1,-96.82695087095809,17.05269723660611,Oaxaca,San Pedro Ixtlahuaca
20318,0,0,1,0,0,1,0,0,0,0,0,0,0,0,1,0,0,6,1,0,0,-97.06957763323696,15.94964571525447,Oaxaca,San Pedro Mixtepec
20324,0,0,0,0,0,0,0,0,0,0,0,0,2,0,1,2,0,6,1,0,0,-96.41286560193322,15.78921428505774,Oaxaca,San Pedro Pochutla
20325,0,0,0,0,1,0,0,0,0,0,0,0,1,0,0,0,0,1,0,0,0,-96.03444782217538,16.7672676128405,Oaxaca,San Pedro Quiatoni
20333,0,0,0,0,1,0,0,0,0,0,0,0,0,0,0,1,0,1,0,0,0,-96.22921316868685,16.66284197690328,Oaxaca,San Pedro Totolápam
20334,0,0,2,0,0,0,1,1,0,0,1,0,1,0,0,1,0,3,0,0,0,-97.53747713176162,16.07768226551326,Oaxaca,Villa de Tututepec
20337,0,1,1,0,0,0,0,0,0,0,0,0,0,0,0,0,0,1,0,0,0,-96.1349825750283,17.02174213452778,Oaxaca,San Pedro y San Pablo Ayutla
20338,0,0,0,0,1,0,0,0,0,0,1,0,0,0,0,0,0,5,0,0,0,-96.79317528826155,17.19515568170646,Oaxaca,Villa de Etla
20340,0,0,0,0,1,1,1,0,0,0,0,0,1,0,0,0,1,1,0,1,0,-97.70629435830138,18.08848581899674,Oaxaca,San Pedro y San Pablo Tequixtepec
20342,0,0,0,0,0,0,0,0,0,0,0,0,0,0,0,0,0,1,0,0,0,-96.75474530762361,16.98200297410414,Oaxaca,San Raymundo Jalpan
20349,0,0,0,0,0,0,0,0,0,0,0,0,0,0,1,0,1,0,0,1,0,-96.63342433385216,16.95177261457262,Oaxaca,San Sebastián Teitipac
20350,0,0,2,0,0,0,0,0,0,1,1,0,0,2,0,2,0,6,0,0,0,-96.67970733920897,17.04530464218345,Oaxaca,San Sebastián Tutla
20352,0,0,1,0,1,0,0,1,0,0,0,0,0,0,0,0,0,0,1,0,0,-97.99814221432234,17.83536407666464,Oaxaca,San Simón Zahuatlán
20359,0,0,0,0,1,1,0,0,0,1,1,0,0,0,0,0,0,1,0,0,0,-96.6221455572893,17.39622182796134,Oaxaca,Santa Ana Yareni
20364,0,0,1,0,0,1,0,0,0,1,1,0,0,0,0,0,0,1,0,0,0,-97.2961908540552,16.17733988971422,Oaxaca,Santa Catarina Juquila
20369,0,0,0,0,0,0,0,0,0,0,0,0,0,0,0,0,0,1,0,0,0,-96.73207752053386,16.88335015854992,Oaxaca,Santa Catarina Quiané
20375,0,0,0,0,0,0,0,0,0,0,0,0,1,0,0,1,0,1,1,0,0,-96.68509385242498,17.04859358260106,Oaxaca,Santa Cruz Amilpas
20385,0,0,1,0,0,1,0,0,0,2,3,0,1,0,0,5,3,21,1,2,1,-96.74859524381293,17.01902122020597,Oaxaca,Santa Cruz Xoxocotlán
20389,0,1,1,0,1,0,0,0,0,0,0,0,0,0,0,0,0,1,0,0,0,-96.75894202239836,16.80582095002923,Oaxaca,Santa Inés Yatzeche
20390,0,0,5,0,4,0,2,2,3,0,1,0,2,1,0,2,2,17,1,2,0,-96.6911115271631,17.06497527557451,Oaxaca,Santa Lucía del Camino
20392,0,0,1,0,1,0,0,0,0,0,0,0,0,0,0,0,0,1,0,0,0,-97.73214560167322,16.94319496096149,Oaxaca,Santa Lucía Monteverde
20397,0,0,2,0,1,0,0,0,0,0,1,0,1,0,0,0,0,6,0,0,0,-97.69139231968444,17.23138870838725,Oaxaca,Heroica Ciudad de Tlaxiaco
20399,1,0,2,0,0,1,0,0,0,1,1,1,1,1,0,4,4,9,0,2,2,-96.78644659992328,17.08820292068242,Oaxaca,Santa María Atzompa
20409,0,0,1,0,0,1,0,0,0,0,3,0,0,1,0,4,1,6,0,0,1,-96.63429752133582,17.02924080482207,Oaxaca,Santa María del Tule
20413,1,0,7,0,0,5,1,2,0,2,3,0,1,1,3,6,3,18,4,1,2,-96.22325684329032,15.79625444541097,Oaxaca,Santa María Huatulco
20414,0,0,0,0,0,0,1,0,0,0,0,0,0,0,1,0,0,1,0,0,0,-97.92637100263711,16.2087643497341,Oaxaca,Santa María Huazolotitlán
20418,0,0,1,0,0,0,0,0,0,1,0,0,0,0,0,0,0,2,0,0,0,-95.47423418513563,16.51581524903225,Oaxaca,Santa María Jalapa del Marqués
20434,0,0,0,0,0,0,0,0,0,0,0,0,0,0,1,1,0,1,0,0,0,-96.97158946036323,18.17420351375389,Oaxaca,Santa María Teopoxco
20439,0,0,0,0,0,0,0,0,0,0,1,0,0,0,0,0,0,0,1,0,0,-96.68183622296421,15.7728902300691,Oaxaca,Santa María Tonameca
20450,0,0,0,0,1,0,0,0,0,0,0,0,0,0,0,0,0,1,0,0,0,-97.52084468556059,16.63155822848093,Oaxaca,Santiago Amoltepec
20458,0,0,0,0,0,1,0,0,0,0,0,0,0,0,0,0,0,1,0,0,0,-96.39463778958012,17.61592437395142,Oaxaca,Santiago Comaltepec
20462,0,0,1,0,0,0,0,0,0,0,0,0,0,0,0,1,0,1,0,0,0,-97.68911085693814,17.8034536573481,Oaxaca,Santiago Huajolotitlán
20467,0,0,2,0,0,2,1,0,2,2,0,1,2,1,1,0,0,3,1,0,0,-97.78518395581955,16.20214238124654,Oaxaca,Santiago Jamiltepec
20469,0,0,1,0,1,0,0,0,0,1,1,0,0,0,0,0,0,2,0,0,0,-98.01877462446522,17.19416681728834,Oaxaca,Santiago Juxtlahuaca
20474,0,0,0,0,0,0,0,0,0,0,0,0,0,0,0,0,0,1,0,0,0,-98.26082350443495,16.48536661858288,Oaxaca,Santiago Llano Grande
20475,0,0,0,0,1,0,0,0,0,0,0,0,0,0,0,0,0,1,0,0,0,-96.42274907930724,16.82978096016641,Oaxaca,Santiago Matatlán
20476,0,0,0,0,0,0,0,0,0,0,1,0,1,0,0,1,0,1,0,0,0,-97.71956519204825,17.9817380015388,Oaxaca,Santiago Miltepec
20482,0,0,0,0,0,0,0,0,0,0,1,0,0,0,0,0,0,2,0,0,0,-98.12139237440985,16.29240029406637,Oaxaca,Santiago Pinotepa Nacional
20483,1,0,0,0,0,1,0,1,0,1,0,0,0,0,0,0,1,2,0,1,0,-96.91039191970641,17.2313168615878,Oaxaca,Santiago Suchilquitongo
20484,0,0,1,0,0,0,1,0,0,0,0,0,0,0,1,1,0,1,0,0,0,-98.23470395666224,17.73406793341063,Oaxaca,Santiago Tamazola
20509,0,0,1,0,1,1,0,0,0,1,0,0,0,1,0,0,0,0,1,0,0,-96.63441351470676,15.83354686539166,Oaxaca,Santo Domingo de Morelos
20515,0,0,0,0,0,1,0,1,0,0,1,0,0,0,0,0,0,2,0,0,0,-95.39159596364287,16.22171043375578,Oaxaca,Santo Domingo Tehuantepec
20525,0,0,1,0,0,0,0,0,1,0,0,0,0,0,0,0,0,1,0,0,0,-94.33233834470023,16.46449652434494,Oaxaca,Santo Domingo Zanatepec
20526,0,0,0,0,0,0,0,0,1,0,1,0,0,0,0,0,0,1,0,0,0,-97.18831677546099,16.080746691852,Oaxaca,Santos Reyes Nopala
20530,0,0,0,0,1,0,0,0,0,0,0,0,0,0,0,0,0,1,0,0,0,-96.63769047501103,16.86657364967926,Oaxaca,Santo Tomás Jalieza
20531,0,0,1,0,0,0,0,0,0,0,1,0,0,0,0,0,0,1,0,0,0,-96.91193398072356,17.14686859551023,Oaxaca,Santo Tomás Mazaltepec
20537,0,0,2,0,0,2,0,0,0,2,0,0,0,1,1,0,0,2,0,0,0,-98.14392272092306,17.56074632274236,Oaxaca,Silacayoápam
20540,0,0,0,0,0,0,0,0,0,1,0,0,2,0,0,0,1,1,0,0,1,-97.58023021615759,17.69029565769011,Oaxaca,Villa de Tamazulápam del Progreso
20545,0,0,1,0,0,1,0,0,1,1,0,0,0,0,0,0,0,1,0,0,0,-97.11221409726068,18.10737735775535,Oaxaca,Teotitlán de Flores Magón
20546,0,0,0,0,1,0,0,0,0,0,0,0,1,0,0,0,0,1,0,0,0,-96.51729369460648,17.0556720897447,Oaxaca,Teotitlán del Valle
20549,0,0,1,0,0,1,1,0,0,0,0,0,1,1,1,1,1,1,0,0,1,-97.8584962112017,17.5822390137596,Oaxaca,"Heroica Villa Tezoatlán de Segura y Luna, Cuna de la Independencia de Oaxaca"
20551,0,0,1,0,0,0,0,0,1,1,0,0,0,0,1,0,0,2,0,0,0,-96.35934674129138,16.87358397294917,Oaxaca,Tlacolula de Matamoros
20553,0,0,0,0,0,0,0,0,0,0,0,0,0,0,0,1,0,2,0,0,0,-96.61638562419758,17.09413253231817,Oaxaca,Tlalixtac de Cabrera
20557,0,0,1,0,1,1,0,0,0,1,0,0,1,0,0,0,0,2,0,0,0,-94.82312018665974,16.48737159940136,Oaxaca,Unión Hidalgo
20565,0,0,3,0,0,1,1,1,0,3,0,0,2,0,0,0,0,6,1,0,0,-96.76657257361917,16.94968338437934,Oaxaca,Villa de Zaachila
20566,0,0,1,0,0,1,0,0,0,1,0,1,0,0,0,0,0,1,0,0,0,-97.382165682089,16.78047898393935,Oaxaca,San Mateo Yucutindoo
20570,0,0,0,0,1,0,1,1,0,0,0,0,0,0,0,0,0,2,0,0,0,-97.03469361830977,16.78024514932759,Oaxaca,Zimatlán de Álvarez
21001,0,0,2,0,0,2,0,0,0,1,0,0,0,1,0,0,0,2,0,0,0,-97.93982646381401,19.10330130400199,Puebla,Acajete
21002,0,0,1,0,0,0,0,0,0,0,0,0,0,0,0,0,0,1,0,0,0,-97.2298041268026,20.10915352352434,Puebla,Acateno
21003,0,0,3,1,0,0,0,0,0,0,0,0,2,0,0,0,0,7,0,0,0,-98.1064025963652,18.15893293751791,Puebla,Acatlán
21004,0,0,2,0,0,0,0,0,0,0,0,0,1,0,0,2,0,3,0,0,0,-97.76498324161803,19.02611094045633,Puebla,Acatzingo
21006,0,0,0,0,1,0,0,0,0,1,0,0,0,0,0,0,0,1,0,0,0,-97.86768292164066,20.02695065498486,Puebla,Ahuacatlán
21008,0,0,1,0,0,0,1,0,0,1,1,1,0,0,0,0,0,1,0,0,0,-98.13362285974237,20.06116357810807,Puebla,Ahuazotepec
21015,0,0,3,0,0,2,1,1,0,1,0,0,5,1,1,5,4,7,4,1,3,-98.05499676471226,19.04832022037851,Puebla,Amozoc
21019,4,1,7,1,0,3,1,1,1,5,3,0,6,1,1,5,9,12,3,5,4,-98.45229219561871,18.89906991365282,Puebla,Atlixco
21022,0,0,1,0,0,0,1,0,0,0,0,0,1,0,0,0,0,1,0,0,0,-98.6077720901356,18.82308045140424,Puebla,Atzitzihuacán
21025,0,0,1,0,0,1,0,0,0,1,0,0,0,0,0,0,0,1,0,0,0,-97.40878099461975,20.08398985994977,Puebla,Ayotoxco de Guerrero
21034,1,0,1,0,0,1,0,0,0,1,0,0,3,0,1,2,4,3,1,1,3,-98.29174546141351,19.13523474564145,Puebla,Coronango
21035,0,0,1,0,1,0,0,0,0,0,0,0,0,0,0,0,0,2,0,0,0,-97.11723316742321,18.24559359214059,Puebla,Coxcatlán
21037,0,0,0,0,0,0,0,0,0,0,0,0,0,0,0,0,1,0,0,0,1,-97.8129542371894,18.401325059799,Puebla,Coyotepec
21041,1,0,2,0,0,0,0,1,2,5,2,1,4,1,2,8,3,14,4,2,1,-98.25607680643641,19.11671771938833,Puebla,Cuautlancingo
21043,0,1,3,0,1,0,0,1,0,0,1,0,0,0,0,0,1,4,0,1,0,-97.50058147899733,20.02798345647255,Puebla,Cuetzalan del Progreso
21045,0,1,2,0,0,2,1,0,0,0,1,1,2,0,1,3,1,4,0,1,0,-97.42970984314827,18.97734204233628,Puebla,Chalchicomula de Sesma
21046,0,0,1,0,0,1,0,0,0,1,0,0,0,0,0,0,1,0,0,0,1,-97.40363987481439,18.63964054256351,Puebla,Chapulco
21047,0,0,1,0,1,2,0,0,0,1,0,0,0,0,0,0,2,3,2,1,1,-98.60061967180428,18.27649589333848,Puebla,Chiautla
21048,0,0,3,0,0,1,0,0,0,2,0,0,0,0,0,0,1,2,1,0,1,-98.51334297332194,19.19560226195442,Puebla,Chiautzingo
21049,0,0,1,0,0,0,0,0,0,0,0,0,0,0,0,0,0,1,0,0,0,-97.96598298068695,20.08875464138362,Puebla,Chiconcuautla
21050,0,0,1,0,0,0,0,0,0,1,0,0,1,0,1,0,0,2,0,0,0,-97.07008616869224,19.20472403482616,Puebla,Chichiquila
21051,0,0,1,0,0,2,0,0,0,2,1,0,1,0,0,4,3,4,0,2,1,-98.62590948788572,18.51036719383812,Puebla,Chietla
21053,0,0,0,0,0,0,0,0,1,1,0,0,0,1,0,0,1,2,0,0,1,-98.134743671628,19.82102187567162,Puebla,Chignahuapan
21054,0,0,2,0,0,0,0,0,0,0,0,0,0,0,0,0,0,1,1,0,0,-97.43655727473211,19.73555900693131,Puebla,Chignautla
21056,1,0,1,0,0,1,0,1,1,1,0,0,1,1,0,0,1,0,0,0,1,-98.47000980694791,18.13955578630311,Puebla,Chila de la Sal
